id,well_name,operator_name,status,county,latitude,longitude
31001010710000,Altamont Well 1,Unknown,UN,Albany,42.697347,-74.03638999999998
31001010720000,Finch 1,Corona Typewriter,UN,Albany,42.49029,-74.12681
31001010730000,Hilton James 1,Belmont Quadrangle Drilling,UN,Albany,42.6448,-73.90768
31001210070000,1,Turf Western Ave. Inc.,PA,Albany,42.67931,-73.83588
31001210080000,2,Turf Western Ave. Inc.,PA,Albany,42.6792,-73.83598999999998
31001210090000,3,Turf Western Ave. Inc.,PA,Albany,42.67925,-73.83625
31001210100000,4,Turf Western Ave. Inc.,PA,Albany,42.67931,-73.83638
31001210110000,5,Turf Western Ave. Inc.,PA,Albany,42.67938,-73.83651
31001210140000,Bldg. 300-1,Rosenblum Development Corporation,IN,Albany,42.68063,-73.84654
31001210150000,Bldg. 300-2,Rosenblum Development Corporation,IN,Albany,42.68047,-73.84668999999998
31001210160000,Bldg. 300-3,Rosenblum Development Corporation,IN,Albany,42.68032,-73.84682999999998
31001210170000,Bldg. 300-4,Rosenblum Development Corporation,IN,Albany,42.68016,-73.84699
31001210180000,Bldg. 300-5,Rosenblum Development Corporation,IN,Albany,42.68022,-73.84717
31001210190000,Bldg. 200-1,Rosenblum Development Corporation,IN,Albany,42.68093,-73.84849
31001210200000,Bldg. 200-2,Rosenblum Development Corporation,IN,Albany,42.68104,-73.84869999999998
31001210210000,Bldg. 200-3,Rosenblum Development Corporation,IN,Albany,42.68119,-73.84894
31001210220000,Bldg. 200-4,Rosenblum Development Corporation,IN,Albany,42.68135,-73.84878
31001210230000,Bldg. 200-5,Rosenblum Development Corporation,IN,Albany,42.68152,-73.84861999999998
31001300000000,ESP Test Well At Pump Station 2022,New York State Office of General Services,VP,Albany,42.648171,-73.747719
31003000050000,Hilligass SC-473,National Fuel Gas Supply Corporation,PA,Allegany,42.04208,-77.86255
31003000060000,Tait EC-479,National Fuel Gas Supply Corporation,AC,Allegany,42.03843,-77.87784999999998
31003000070000,Norris EC-468,National Fuel Gas Supply Corporation,AC,Allegany,42.03885,-77.85204
31003000090000,Wilson (NFGSC) EC-458,National Fuel Gas Supply Corporation,AC,Allegany,42.04861,-77.8408
31003000100000,Stout (Clark) EC-463,National Fuel Gas Supply Corporation,PA,Allegany,42.04504,-77.84863
31003000120000,Billings EC-542,National Fuel Gas Supply Corporation,AC,Allegany,42.0603,-77.81521999999998
31003000120001,Billings EC-542,National Fuel Gas Supply Corporation,AR,Allegany,42.0603,-77.81521999999998
31003000130000,Forsythe Farms Corp (McLean) EC-541,National Fuel Gas Supply Corporation,AC,Allegany,42.06068,-77.82258
31003000130001,Forsythe Farms Corp (McLean) EC-541,National Fuel Gas Supply Corporation,AR,Allegany,42.06068,-77.82258
31003000140000,Clark EC-444,National Fuel Gas Supply Corporation,AC,Allegany,42.09336,-77.76509
31003000150000,Barney H. (Livermore) 454,Penn-York Energy Corp.,PA,Allegany,42.07804,-77.79220999999998
31003000160000,Barney (Livermore) EC-452,National Fuel Gas Supply Corporation,AC,Allegany,42.07888,-77.80122
31003000170000,Newton C (Heselton) EC-446,National Fuel Gas Supply Corporation,AC,Allegany,42.09153,-77.77952999999998
31003000180000,Nye SC-451Nye EC-451,National Fuel Gas Supply Corporation,AC,Allegany,42.08182,-77.80669
31003000190000,Wilson (NFGSC) EC-449,National Fuel Gas Supply Corporation,AC,Allegany,42.08187,-77.80069
31003000200000,Crandell EC-431,National Fuel Gas Supply Corporation,PA,Allegany,42.10265,-77.77001
31003000210000,Cornelius (Crandell) EC-432,National Fuel Gas Supply Corporation,AC,Allegany,42.10252,-77.76622999999998
31003000220000,Martin (Lafever) EC-433,National Fuel Gas Supply Corporation,AC,Allegany,42.10531,-77.76705
31003000230000,Hess EC-430,National Fuel Gas Supply Corporation,AC,Allegany,42.10261,-77.77590999999998
31003000440000,Stallknecht (Graves) EC-485,National Fuel Gas Supply Corporation,AC,Allegany,42.04641,-77.83437999999998
31003000460000,Allegany County Farm 1,Christman Raymond L.,PA,Allegany,42.33986,-77.96873999999998
31003000550000,Clarence Clark Est 1,Empire Gas & Fuel,PA,Allegany,42.11682,-77.79345999999998
31003000590000,Clark Herb 1,Belmont Quadrangle Drilling,UN,Allegany,42.13731,-77.89754999999998
31003000840000,Greene EC-447,National Fuel Gas Supply Corporation,AC,Allegany,42.0856,-77.79156999999998
31003000850000,Woodruff Fanny Est,Kerr & Kaufman,PA,Statewide,0.0,0.0
31003000860000,Sheldon Arthur 1,Penn United,UN,Allegany,42.39171,-78.03588
31003000870000,Smith J S 1,Kerr & Kaufman,UM,Allegany,42.42128,-78.01327
31003002320000,Hackett Geo 1,Empire Gas & Fuel,PA,Allegany,42.18171,-78.07935999999998
31003002330000,Vossler Katherine 1,Hanley & Bird,PA,Allegany,42.0834,-78.01117
31003002340000,Genung Deforest 1,Hanley & Bird,PA,Allegany,42.08945,-78.00416
31003002350000,Gadsby J 1,Allegany Gas,PA,Allegany,42.00592,-78.14665999999998
31003002360000,Vossler C W 1,Cabot G.L.,PA,Allegany,42.05782,-78.01031999999998
31003002370000,Carpenter Forest 1,Witner & Fairman,PA,Allegany,42.21431,-77.99973
31003002380000,Gillette Elmer 1,Cabot G.L.,PA,Allegany,42.17719,-78.07325
31003002390000,Ballard Hazzard 1,Columbia Gas Transmission LLC,PA,Allegany,42.10816,-78.17745999999998
31003002400000,Wightman 1,National Drilling & Dev.,PA,Allegany,42.12115,-78.14396999999998
31003002410000,Briggs 1,Chautauqua Holdings Co.,PA,Allegany,42.1578,-78.21922999999998
31003002420000,Moore R B 1,Columbia Gas Transmission LLC,PA,Allegany,42.10883,-78.14156
31003002430000,Dick F Or W C Phillips 1,Columbia Gas Transmission LLC,PA,Allegany,42.10527,-78.14801
31003002440000,Newton L 1,Cady et al,PA,Allegany,42.14336,-78.08988999999998
31003002450000,Reed Don 1,Columbia Gas Transmission LLC,PA,Allegany,42.12177,-78.12882999999998
31003002460000,Chadwick F 1,Columbia Gas Transmission LLC,PA,Allegany,42.09385,-78.17064999999998
31003002470000,Gilbert A 1,Vandermark Exploration Inc.,UM,Allegany,42.11943,-78.14544999999998
31003002480000,Monaghan Dan 1,Penn York Natural Gas,PA,Allegany,42.43475,-77.84233
31003002500000,Conrad Grace 1,Allegany Gas,PA,Allegany,42.26355,-77.97669
31003002510000,Lorello Ernest 1,Penn York Natural Gas,PA,Allegany,42.32048,-77.79859999999998
31003002520000,Terwilligar F 1,Witmer Oil & Gas,PA,Allegany,42.33409,-77.98399
31003002530000,Engalls Est Frank Engle 1,Witmer Oil & Gas,PA,Allegany,42.32955,-77.95203999999998
31003002540000,Snyder Wm 1,Beers & Fralick,UM,Allegany,42.33918,-77.96639
31003002560000,Scott (Bassett) EC-455,National Fuel Gas Supply Corporation,AC,Allegany,42.0781,-77.79062999999998
31003002580000,Perry (Johnson) EC-488,National Fuel Gas Supply Corporation,AC,Allegany,42.03147,-77.88899
31003002590000,Stout G (Wilson C) EC-483,National Fuel Gas Supply Corporation,AC,Allegany,42.04878,-77.8615
31003002600000,Carpenter Forest 1,Witner & Fairman,PA,Allegany,42.21789,-77.99921
31003002610000,Loring Milton 1,Loring Robert H.,PA,Allegany,42.04985,-77.89463
31003002640000,Regan C 1,Cunningham Natural Gas Corp.,PA,Allegany,42.00028,-77.95507999999998
31003002650000,Black E S 1,Pavilion Natural Gas Co.,PA,Allegany,42.17444,-77.94409
31003002660000,Randolph A 1,Johnson Norwood,PA,Allegany,42.23659,-77.80666999999998
31003002670000,Hayes Maud 1,Clancy I.P.,PA,Allegany,42.19974,-77.93857
31003002700000,Lynch A 1,Cabot Oil & Gas Corp.,PA,Allegany,42.12961,-77.82724
31003002720000,Padden Est 1,Penn-York Energy Corp.,PA,Allegany,42.1369,-77.81839999999998
31003002730000,McEwen + Morton 1,Clancy I.P.,PA,Allegany,42.20538,-77.97386
31003002740000,Rigby Cyrus 1,Van Gilder,PA,Allegany,42.00516,-77.80003999999998
31003002760000,Lynch (Clark) EC-484,National Fuel Gas Supply Corporation,AC,Allegany,42.05518,-77.84225
31003002770000,Baham C 1,Belmont Quadrangle Drilling,PA,Allegany,42.01231,-77.77956
31003003350000,Barringer Benton E 1,Appalachian Development Corporation,PA,Allegany,42.3477,-78.16271999999998
31003003360000,Harback 1,Hill & McKinney,PA,Allegany,42.26657,-78.22596
31003003370000,Hooker Sydney 1,McKiney & Williams,PA,Allegany,42.33038,-78.04455
31003003380000,Murray Est 1,Cabot G.L.,PA,Allegany,42.341481,-78.146027
31003003390000,Bennett Leon 1,Sanderson et al,PA,Allegany,42.45194,-77.99432
31003003400000,Barringer D 1,Appalachian Development Corporation,PA,Allegany,42.34193,-78.16065999999998
31003003410000,Murray E 1,Benedum & Trees,UL,Allegany,42.34576,-78.15162999999998
31003003420000,Ford R C 1,Pavilion Natural Gas Co.,PA,Allegany,42.33477,-78.15679
31003003430000,Clark 1,Hanley & Bird,PA,Allegany,42.27015,-78.05652
31003003440000,Cline Raymond 1,Witmer Oil & Gas,PA,Allegany,42.25777,-78.00749
31003003450000,Connors Matt 1,Filmer Oil & Gas,PA,Allegany,42.46954,-78.15452
31003003460000,Royce 1,Belmont Quadrangle Drilling,PA,Allegany,42.28252,-78.08768999999998
31003003470000,Byron Bessie,French Harold,PA,Allegany,42.38221,-78.05773
31003003480000,Lilley Frank L 1,French Harold,PA,Allegany,42.39363,-78.03161
31003003490000,Phipps Mina G 1,Belmont Quadrangle Drilling,PA,Allegany,42.40876,-78.02606
31003003500000,Woodruff Fanny Est 1,Higgins et al,PA,Allegany,42.41343,-78.03104999999998
31003003510000,Jermaine Eda L 1,Hanley & Bird,PA,Allegany,42.41233,-78.02679999999998
31003003520000,Smith M K,Hanley & Bird,PA,Allegany,42.41769,-78.02235
31003003530000,Phipps Roy 1,Lawrence Gas Co.,PA,Allegany,42.40903,-78.02809999999998
31003003540000,Bently G 1,Lawrence Gas Co.,PA,Allegany,42.41027,-78.02513
31003003550000,Hoyt E C 1,Jackles et al,PA,Allegany,42.41949,-78.01308
31003003560000,Barney F,Hanley & Bird,PA,Allegany,42.42002,-78.01791
31003003570000,"Benrens, H 1",Bayless et al,PA,Allegany,42.41316,-77.98291
31003003580000,Bank of Angelica 3,Kaufman Gordon et al,PA,Allegany,42.39363,-78.01381999999998
31003003590000,Steadman C 1,Kerr & Kaufman,PA,Allegany,42.42169,-78.06462999999998
31003003600000,Bank of Angelica 1,Kerr & Kaufman,PA,Allegany,42.40161,-78.03754999999998
31003003610000,Bank of Angelica 2,Kerr & Kaufman,PA,Allegany,42.40642,-78.02957
31003003620000,Vincent + Smith 1,Kerr & Kaufman,PA,Allegany,42.40986,-78.03347999999998
31003003630000,Vincent S P 1,Brendel S.J.,PA,Allegany,42.40903,-78.04237999999998
31003003640000,Slaight J W 1,Pennsylvania Gas Co. Inc.,PA,Allegany,42.40986,-78.0142
31003003650000,Murphy Est 1,Hanley & Bird,PA,Allegany,42.00584,-77.97777
31003003660000,Odonnell Patricia 1,Cabot G.L.,PA,Allegany,42.01052,-77.93223
31003003680000,"Crane, D 1",Sylvania Corp.,PA,Allegany,42.0086,-77.97278
31003003690000,Harder Lee 1,Cabot G.L.,PA,Allegany,42.07543,-77.96915
31003003700000,Voided Permit,Unknown,VP,Allegany,42.01341,-77.95361
31003003710000,"O'Hara, James 1 (NFGSC SC-498A)",Cunningham Natural Gas Corp.,CO,Allegany,42.00282,-77.93849
31003003710001,"O'Hara, James 1 (NFGSC SC-498A)",National Fuel Gas Supply Corporation,AC,Allegany,42.00283,-77.93862
31003003740000,"Knox, H 1",Sylvania Corp.,PA,Allegany,42.0185,-77.95066
31003003750000,"Burns, W 2",Becker J.W. et al,PA,Allegany,41.9998,-77.95802
31003003760000,"Knox, H 1",Sylvania Corp.,PA,Allegany,42.01423,-77.9573
31003003790000,Moynihan (N146) EC-495,National Fuel Gas Supply Corporation,CO,Allegany,42.0185,-77.937
31003003790001,Moynihan Farms SC-495A,National Fuel Gas Supply Corporation,AC,Allegany,42.01851,-77.93679
31003003800000,Regan C D 2,Cunningham Natural Gas Corp.,PA,Allegany,42.01052,-77.94697999999998
31003003810000,Burns Wm 1,Becker J.W. et al,PA,Allegany,42.00365,-77.95839999999998
31003003810001,Burns W. SC-515A,National Fuel Gas Supply Corporation,AC,Allegany,42.00388,-77.95913
31003003820000,Barber Dpra 1 496,Cabot G.L.,PA,Allegany,42.01939,-77.92726
31003003830000,Cunningham Alice 1 (NFGSC SC-494),National Fuel Gas Supply Corporation,CO,Allegany,42.01575,-77.93196
31003003830001,Cunningham Alice 1 (NFGSC SC-494),National Fuel Gas Supply Corporation,AC,Allegany,42.01569,-77.93197
31003003840000,Col Henrietta 1 513,Cunningham Natural Gas Corp.,PA,Allegany,42.00255,-77.96285
31003003850000,"Moran, T 1",Southwestern Development Co.,PA,Allegany,42.01314,-77.96098
31003003870000,"Costello, M 1",National Fuel Gas Supply Corporation,PA,Allegany,42.01877,-77.94587
31003003880000,Maxwell Thomas 1 491,Cunningham Natural Gas Corp.,PA,Allegany,42.00268,-77.94439
31003003890000,Voided Permit,Unknown,VP,Allegany,42.00694,-77.95878
31003003900000,Voided Permit,Unknown,VP,Allegany,42.01478,-77.92118999999998
31003003930000,Barney EC-453,National Fuel Gas Supply Corporation,PA,Allegany,42.07804,-77.79528
31003003940000,Rennels Cy 1,Empire Gas & Fuel,PA,Allegany,42.22422,-77.78946999999998
31003003950000,Searer H,Empire Gas & Fuel,PA,Allegany,42.06828,-77.85518
31003003960000,Cornelius 1,Empire Gas & Fuel,PA,Allegany,42.22875,-77.82071999999998
31003003970000,Clark J EC-457,National Fuel Gas Supply Corporation,AC,Allegany,42.05379,-77.83486
31003003980000,Grastorf (Burrows) EC-539,National Fuel Gas Supply Corporation,AC,Allegany,42.04428,-77.89275
31003003990000,Dannheim (Johnson) EC-481,National Fuel Gas Supply Corporation,AC,Allegany,42.03862,-77.88342
31003004000000,Clark Herbert G 12,Empire Gas & Fuel,PA,Allegany,42.13965,-77.81434
31003004010000,Lynch Michael 1,Empire Gas & Fuel,PA,Allegany,42.13703,-77.82725999999998
31003004020000,Brubaker (Miller) EC-456,National Fuel Gas Supply Corporation,AC,Allegany,42.06828,-77.8062
31003004030000,Lynch Mary E 1,Belmont Quadrangle Drilling,PA,Allegany,42.13484,-77.81064
31003004040000,Potter Oscar A 1,Empire Gas & Fuel,UN,Allegany,42.07818,-77.77038
31003004050000,Lynch C L,Belmont Quadrangle Drilling,PA,Allegany,42.21844,-77.82736
31003004060000,Martin (Lafever) EC-434,National Fuel Gas Supply Corporation,AC,Allegany,42.10687,-77.76325
31003004070000,Bassett M 1,Empire Gas & Fuel,PA,Allegany,42.07914,-77.78180999999998
31003004080000,Hayes Maud 2,Clancy I.P.,PA,Allegany,42.20235,-77.93523999999998
31003004100000,Patten NY-593,Penn York Natural Gas,PA,Allegany,42.11572,-77.76909
31003004120000,Barney H EC-450,National Fuel Gas Supply Corporation,AC,Allegany,42.08032,-77.80401999999998
31003004350000,Norris EC-467,National Fuel Gas Supply Corporation,AC,Allegany,42.0411,-77.84895
31003004360000,Shear F (Shear Wm) EC-474,National Fuel Gas Supply Corporation,AC,Allegany,42.04208,-77.86320999999998
31003004370000,Dannheim (Johnson) EC-482,National Fuel Gas Supply Corporation,AC,Allegany,42.04172,-77.87475999999998
31003004390000,Fortner Byron 466,Penn-York Energy Corp.,PA,Allegany,42.04297,-77.85084
31003004400000,Fortner (Porter B) EC-465,National Fuel Gas Supply Corporation,AC,Allegany,42.04689,-77.85481
31003004410000,Fortner Byron 470,Penn-York Energy Corp.,PA,Allegany,42.0438,-77.85581999999998
31003004420000,Cornelius F EC-464,National Fuel Gas Supply Corporation,AC,Allegany,42.04836,-77.85145
31003004440000,Allen & Bouch SC-461,Penn-York Energy Corp.,PA,Allegany,42.04655,-77.84834999999998
31003004450000,Allen & Bouch SC-460,Penn-York Energy Corp.,PA,Allegany,42.0495,-77.84825999999998
31003004460000,Sc 472,Penn-York Energy Corp.,PA,Allegany,42.03789,-77.85848
31003004470000,Foster (Riley Bros) EC-487,National Fuel Gas Supply Corporation,AC,Allegany,42.0361,-77.85415999999998
31003004630000,"Barber, D 2",Cabot G.L.,PA,Allegany,42.02578,-77.75893
31003004640000,Empire Rogers 1 525,Cabot G.L.,UL,Allegany,42.00126,-77.99106
31003004650000,Ohara James 1,Van Gilder,PA,Allegany,42.00419,-77.94181
31003004660000,Voided Permit,Unknown,VP,Allegany,42.00722,-77.96687
31003004680000,Voided Permit,Unknown,VP,Allegany,42.00447,-77.97534
31003004690000,Mulvey Della 1,Empire Gas & Fuel,PA,Allegany,42.00337,-77.97718999999998
31003004700000,Downes Est 1,Sylvania Corp.,PA,Allegany,42.01066,-77.97167
31003004710000,Burns T (2317) SC-517,National Fuel Gas Supply Corporation,PA,Allegany,42.00612,-77.96911
31003004710001,Burns T SC-517A,National Fuel Gas Supply Corporation,AC,Allegany,42.00606,-77.96971999999998
31003005390000,Youmans Robert,Tidewater South Penn,PA,Allegany,42.18517,-78.12777
31003007190000,Barnard D Cline 1,Conahue T.E. et al,PA,Allegany,42.29009,-78.03434
31003007400000,Hodnet,Unknown,PA,Allegany,42.49868,-78.17699
31003007660000,Brandes 08327,Stark Eric,IN,Allegany,42.07661,-77.88080999999998
31003008360000,Crandall Max 2,Empire Gas & Fuel,UN,Allegany,42.10761,-77.76079
31003008500000,Chase Lynn 1,Parsons Bros,PA,Allegany,42.42607,-78.17937999999998
31003009230000,Gillett,Unknown,PA,Allegany,42.4588,-78.10199
31003009250000,Hammond,Unknown,PA,Allegany,42.47586,-78.10013999999998
31003009950000,Day Mike H 1,Sawyer Salvage,PA,Allegany,42.34606,-78.13706999999998
31003009960000,Buell,Iroquois Gas Corp.,PA,Allegany,42.46761,-78.14857
31003009980000,unknown,Other Gas,UN,Allegany,42.458643,-77.779561
31003010020000,Stout EC-480,National Fuel Gas Supply Corporation,AC,Allegany,42.03587,-77.87959999999998
31003011290000,Ungerman Norman G 1,Fralich C.E.,PA,Allegany,42.23659,-78.24701
31003011500000,Emerick N Y 1,Patterson H.W.,PA,Allegany,42.18351,-78.03816
31003011590000,King Adelbert 1,Ravening et al,PA,Allegany,42.13484,-77.97091
31003017980000,Williams 1,Iroquois Gas Corp.,PA,Allegany,42.44891,-78.28091
31003018050000,Cunninghan Nat Gas EC-477,National Fuel Gas Supply Corporation,AC,Allegany,42.03608,-77.86425
31003018170000,Truby 1,Brown et al,PA,Allegany,42.17595,-78.13395
31003018190000,Thayer 1,Ricker Charles,PA,Allegany,42.42333,-78.15349999999998
31003022110000,Dziekomki 1,Sawyer Salvage,UL,Allegany,42.348947,-78.148199
31003022970000,Tucker 1,Kendall Refining Co.,PA,Allegany,42.22559,-77.87779
31003022980000,O'Brien 1,Unknown,UN,Allegany,42.16027,-78.01578999999998
31003022990000,Hanchett Clayton 1,Fralick C.W. & Assoc.,PA,Allegany,42.24347,-78.06149
31003023000000,Ringelberg John 1,Black River Gas & Fuel,PA,Allegany,42.26381,-78.22548
31003023020000,Genung Deforrest 1,Gordon William,PA,Allegany,42.0911,-78.00859
31003023030000,Cline Raymond 1,Gordon William,PA,Allegany,42.25089,-78.01193
31003023040000,Cooper Doran 1,Fralick C.W. & Assoc.,PA,Allegany,42.22779,-78.06776999999998
31003023050000,Hurd Cecil 1,Gordon William,PA,Allegany,42.15711,-77.9016
31003023060000,Gardiner 1,Kendall Refining Co.,PA,Allegany,42.19083,-77.79351
31003023070000,Amsden Alva + Ray 1,Fralick C.W. & Assoc.,PA,Allegany,42.24168,-78.24419
31003023090000,Watson Willoughby 1,Belmont Quadrangle Drilling,PA,Allegany,42.18297,-78.11041
31003023100000,Scott 1,Belmont Quadrangle Drilling,PA,Allegany,42.21762,-78.08417
31003023110000,Whiteman Robt 1,Hurd Brothers,PA,Allegany,42.16206,-77.90603
31003023120000,Duffy Catharine 1,Conahue T.E. et al,UN,Allegany,42.3037,-77.99751
31003023160000,Green NY-737,Empire Gas & Fuel,PA,Allegany,42.101,-77.75821
31003023170000,Green EC-448,National Fuel Gas Supply Corporation,AC,Allegany,42.08402,-77.79495
31003026140000,Maydole Fred 1,Sawyer Salvage,PA,Allegany,42.349019,-78.148506
31003026690000,Thurston 1,Stengel J.C.,PA,Allegany,42.19947,-78.08970999999998
31003026700000,Francisco 1,Van Gilder,PA,Allegany,42.19713,-78.01913
31003026740000,State of New York 1,Beers & Fralick,PA,Allegany,42.26272,-78.11192
31003026750000,State of New York 2,Beers & Fralick,PA,Allegany,42.27125,-78.1134
31003026760000,Plummer John 1,Beers & Fralick,PA,Allegany,42.22724,-78.11265
31003026770000,Plummer John 2,Beers & Fralick,PA,Allegany,42.22697,-78.11781999999998
31003026780000,Crandall May E 1,Beers & Fralick,PA,Allegany,42.27675,-78.10286
31003026810000,Thomas Robert 1,Butera Oil Co,PA,Allegany,42.46926,-78.18106
31003026820000,Bettinger Lloyd M 1,Fralick C.W. & Assoc.,PA,Allegany,42.2927,-78.10416999999998
31003026870000,Carpenter 1,Van Gilder,PA,Allegany,42.19319,-78.01532
31003026880000,Carpenter 2,Van Gilder,PA,Allegany,42.19611,-78.01139999999998
31003029530000,Hills-Spiker IGC-987,Iroquois Gas Corp.,PA,Allegany,42.49758,-78.12112999999998
31003029570000,Slack Merle 1,Valley Producing Co.,PA,Allegany,42.0306,-77.7947
31003029670000,McElroy 1,Butera Oil Co,PA,Allegany,42.50116,-78.22945
31003031960000,Babcock 1,Leiderbach-French,UN,Allegany,42.02427,-77.92523
31003031980000,Riske 1,Leiderbach-French,PA,Allegany,42.0273,-77.92341
31003032400000,McDonald Edward 1,Van Gilder,PA,Allegany,42.22697,-78.21729
31003032640000,Herdman Jos 1,Heiser & Smith,PA,Allegany,42.285,-78.00714
31003033230000,Tucker Wm,Unknown,PA,Allegany,42.44809,-77.87721
31003033240000,Scott,Clark John,PA,Allegany,42.45276,-77.86387
31003037620000,Voided Permit,Unknown,VP,Statewide,0.0,0.0
31003038560000,Smith Joseph 1,Swan-Bell Oil,PA,Allegany,42.19039,-78.29782
31003038600000,Rehler 1,Swan-Bell Oil,PA,Allegany,42.17389,-78.24863
31003038610000,Cole 1,Swan-Bell Oil,PA,Allegany,42.19204,-78.28299
31003038620000,Wilson 1,Swan-Bell Oil,PA,Statewide,0.0,0.0
31003038630000,Sloan 1,Swan-Bell Oil,PA,Allegany,42.18186,-78.283
31003038690000,Harris Lester H Etal 1,Felmont Oil Corp.,PA,Allegany,42.03967,-77.83932
31003038710000,Lot 54 23,Bradley Producing Corp.,PA,Allegany,42.02455,-78.01705
31003038720000,Wesche 46,Bradley Producing Corp.,PA,Allegany,42.0361,-77.97024
31003038730000,Frisby 72,Bradley Producing Corp.,PA,Allegany,42.15326,-77.79478
31003038740000,Macken 15,Bradley Producing Corp.,PA,Allegany,42.08588,-77.85778
31003038750000,Jordan 220,Bradley Producing Corp.,PA,Allegany,42.1241,-78.1723
31003038860000,Torrey 1,Swan-Bell Oil,PA,Allegany,42.19561,-78.3065
31003038930000,Foreman 83,Bradley Producing Corp.,PA,Allegany,42.04957,-78.15605999999998
31003039010000,Beebe 1,Swan-Bell Oil,PA,Allegany,42.19837,-78.29614999999998
31003039070000,Coon Mary V 1,Parsons Bros,PA,Allegany,42.35513,-78.09139999999998
31003039220000,Fleming 1,Shaw et al,PA,Allegany,42.33876,-77.96451999999998
31003039250000,Cook Gerald M 1,Parsons Bros,PA,Allegany,42.45359,-78.17345
31003039410000,Hanks 3,O'Connors Est.,PA,Allegany,42.0537,-78.25747
31003039520000,Atherton Est 1,Parsons Bros,PA,Allegany,42.38814,-78.04904
31003039560000,Cook G M 2,Parsons Bros,PA,Allegany,42.45303,-78.174
31003039690000,Siegl Bros 1,Parsons Bros,UM,Allegany,42.39914,-78.0496
31003039750000,Lilly Glenn A + Lola A 1,Parsons Bros,PA,Allegany,42.36847,-78.05549999999998
31003039800000,Cartwright A 1,Parsons Bros,PA,Allegany,42.42883,-77.95606999999998
31003039830000,Benjamin Burton 1,Parsons Bros,PA,Allegany,42.30631,-78.06026
31003039860000,Botens Stanley Swift 1,Parsons Bros,PA,Allegany,42.31662,-78.28750999999998
31003039900000,Tucker 1,Parsons Bros,PA,Allegany,42.40065,-78.07648
31003039950000,Hillabush 1,Bentley et al,PA,Allegany,42.29105,-78.1619
31003040250000,Clark Zina 1,Felmont Oil Corp.,PA,Allegany,42.34618,-78.21585
31003040290000,Lewis J 1,Parsons Bros,PA,Allegany,42.30026,-78.12377999999998
31003040520000,Rork Cecile 1,Bentley et al,PA,Allegany,42.26616,-78.19508
31003040610000,Byrnes 20,East Hill Co.,PA,Allegany,42.19486,-78.07769999999998
31003040620000,Byrnes 36 L 21,East Hill Co.,PA,Allegany,42.19555,-78.07806999999998
31003040650000,Amsden Helen 1,Swan-Bell Oil,PA,Allegany,42.24333,-78.24796
31003040660000,Campbell Rufus 1,Swan-Bell Oil,PA,Allegany,42.23494,-78.23425
31003041250000,Fee 1,Short Harold B.,PA,Allegany,42.09949,-77.92266999999998
31003041270000,Follett 1,Freeman & Cotton,PA,Statewide,0.0,0.0
31003041440000,Costello 2,Barnes Olin,UL,Allegany,42.084284,-77.91141299999998
31003041450000,Duke J 3 Lot 125,Bradley Producing Corp.,PA,Allegany,42.05013,-78.02923
31003041680000,Eberl L 1,Bentley et al,PA,Allegany,42.2773,-78.2873
31003042360000,Duke C1,Bradley Producing Corp.,PA,Allegany,42.04779,-78.03292
31003042480000,Wolfer Duane A 1,NYS Natural Gas Corp.,PA,Allegany,42.47049,-78.15989999999998
31003043510000,Highfield Bobby Ann 1 1,Dalletto John C. et al,PA,Allegany,42.44258,-78.00843999999998
31003043520000,Voided Permit,Unknown,VP,Statewide,0.0,0.0
31003043620000,Potter L 2,The Richardson Petroleum Corporation,IN,Allegany,42.07983,-77.76817
31003043720000,Potter L 3,Potter  Linford,PA,Allegany,42.08024,-77.76918
31003043810000,Fassett C L Oliphant 63t,Thornton Co.,UL,Allegany,42.06087,-77.96407999999998
31003043860000,Nye Bert 1,Empire Gas & Fuel,PA,Allegany,42.06346,-77.79343
31003043880000,Shay B L 1,Great Lakes Gas Corp.,PA,Allegany,42.39721,-77.76918
31003044210000,Austin-Bayard 1,Klein Oil & Logging,AC,Allegany,42.08033,-77.76095999999998
31003044250000,Forsythe (Bloss) 1,Sam Koehler Enterprises Inc.,IN,Allegany,42.06732,-77.7641
31003044300000,Voided Permit,Unknown,VP,Allegany,42.06732,-77.7641
31003044410000,Short Tract Field 1,Unknown,PA,Allegany,42.44107,-78.02422
31003044420000,Short Tract Field 2,Unknown,UL,Allegany,42.44157,-78.03426
31003044430000,Short Tract Field 3 (2),Unknown,PA,Allegany,42.43819,-78.02679999999998
31003044630000,Burdick Arthur 1,James V. Joyce/DBA Pipeline Co.,PA,Allegany,42.25832,-77.75526
31003044720000,Obrien 1,Hartsville Gas & Oil Inc.,PA,Allegany,42.11723,-77.90171999999998
31003044730000,Driscoll 1,Hartsville Gas & Oil Inc.,PA,Allegany,42.11875,-77.90374
31003044800000,Bloss Old Forysth Farm 1,Sam Koehler Enterprises Inc.,IN,Allegany,42.06183,-77.77378
31003044810000,Voided Permit,Unknown,VP,Statewide,0.0,0.0
31003044830000,Forsythe (Bloss) 02,Plants and Goodwin Inc.,PA,Allegany,42.06732,-77.76742
31003044840000,Bloss 1,Messer Oil Corp.,PA,Allegany,42.05948,-77.77386
31003044860000,Voided Permit,Unknown,VP,Statewide,0.0,0.0
31003045010000,Fee 1,Eymer Elden,PA,Allegany,42.17045,-78.06032
31003045250000,Clark Lafrone 1,Christman Raymond L.,UN,Allegany,42.0955,-77.83453
31003045260000,Clark Lafrone 2,Christman Raymond L.,PA,Allegany,42.09606,-77.82904999999998
31003045280000,Francisco Pam Anne 1,Dalletto John C. et al,PA,Allegany,42.19342,-78.04925
31003045410000,Austin A 11,Yahn & Yahn Inc.,IN,Allegany,42.080622,-77.74922599999998
31003045480000,Coates C,Iroquois Gas Corp.,PA,Allegany,42.04435,-77.84706
31003045490000,Coates C,Iroquois Gas Corp.,PA,Allegany,42.043,-77.84402
31003045650000,Bledsoe 37,Quintet,PA,Allegany,42.07295,-77.75304
31003045680000,Mattison I-2180,Iroquois Gas Corp.,PA,Allegany,42.06773,-77.81406
31003045690000,Nobles I-2186,Iroquois Gas Corp.,PA,Allegany,42.07406,-77.80670999999998
31003045840000,Reiss Kenneth F,Unknown,UL,Allegany,42.111093,-78.30607399999998
31003045870000,Old 1 Bradley Mather 1,Bradley Producing Corp.,PA,Allegany,42.03225,-78.0142
31003045880000,Old 2 Bradley Mather 2,Bradley Producing Corp.,PA,Allegany,42.03142,-78.01447
31003045910000,Old 4 Bradley Thornton 4,Bradley Producing Corp.,PA,Allegany,42.02978,-78.00691
31003045960000,Roeske A 8,McKee W.S.,UL,Allegany,42.083624,-77.88035399999998
31003045970000,McOmber Reba 1,Hartsville Gas & Oil Inc.,PA,Allegany,42.22752,-77.95836
31003045980000,Braunschweiger  2,Smith Rodney L.,AC,Allegany,42.101,-77.89467999999998
31003045990000,Francisco 1,Christman Raymond L.,UN,Allegany,42.20221,-78.02615
31003046080000,Elliot 2150,Iroquois Gas Corp.,PA,Allegany,42.00145,-78.07563
31003046090000,Van Buren 2151,Iroquois Gas Corp.,PA,Allegany,42.03142,-77.94992999999998
31003046130000,Potter Oscar 3,Bradley Producing Corp.,PA,Allegany,42.07653,-77.7689
31003046140000,Anderson 1,Bradley Producing Corp.,PA,Allegany,42.0768,-77.77333
31003046400000,1491,Bradley Producing Corp.,PA,Allegany,42.03624,-78.01742
31003046410000,"Lot 91, District 2133",Bradley Producing Corp.,UM,Allegany,42.03511,-78.01739999999998
31003046420000,Old 11,Bradley Producing Corp.,PA,Allegany,42.03761,-78.01595
31003046440000,Loring 1,Ebenezer Oil Co. Inc.,PA,Allegany,42.06305,-77.78033
31003046540000,"Ames, H. 1",Bradley Producing Corp.,PA,Allegany,42.11929,-78.17341
31003046570000,012-Godown,Yahn & Yahn Inc.,PA,Allegany,42.0806,-77.74836999999998
31003046730000,Sounder (Ludden) EC-486,National Fuel Gas Supply Corporation,AC,Allegany,42.04022,-77.84650999999998
31003046770000,Hatch 2161,Iroquois Gas Corp.,PA,Allegany,42.10431,-78.19629999999998
31003046780000,Hatch 2162,Iroquois Gas Corp.,PA,Allegany,42.10238,-78.1926
31003046790000,Horton 2262,Iroquois Gas Corp.,PA,Allegany,42.11503,-78.16575
31003046800000,Horton 2263,Iroquois Gas Corp.,PA,Allegany,42.11421,-78.17709999999998
31003046810000,Horton 2264,Iroquois Gas Corp.,PA,Allegany,42.11393,-78.16279
31003046820000,Horton 2265,Iroquois Gas Corp.,PA,Allegany,42.11585,-78.16279
31003046830000,Horton 2266,Iroquois Gas Corp.,PA,Allegany,42.11366,-78.16825
31003046840000,Evans 2267,Iroquois Gas Corp.,PA,Allegany,42.10072,-78.17341
31003046850000,Howard 2268,Iroquois Gas Corp.,PA,Allegany,42.10402,-78.17046
31003046860000,Jordan 2272,Iroquois Gas Corp.,PA,Allegany,42.11091,-78.16786999999998
31003046870000,Jordan 2273,Iroquois Gas Corp.,PA,Allegany,42.10843,-78.16786999999998
31003046880000,Jordan 2274,Iroquois Gas Corp.,PA,Allegany,42.10952,-78.16574
31003046890000,Thompson 2275,Iroquois Gas Corp.,PA,Allegany,42.10952,-78.17377
31003046900000,Thompson 2276,Iroquois Gas Corp.,PA,Allegany,42.16096,-78.17821999999998
31003046910000,Thompson 2277,Iroquois Gas Corp.,PA,Allegany,42.11227,-78.17156
31003046920000,Thompson 2278,Iroquois Gas Corp.,PA,Allegany,42.11146,-78.17489999999998
31003046980000,Ballard 2279,Iroquois Gas Corp.,PA,Allegany,42.10072,-78.18300999999998
31003046990000,Hazzard 2280,Iroquois Gas Corp.,PA,Allegany,42.10733,-78.18707
31003047000000,Hazzard 2281,Iroquois Gas Corp.,PA,Allegany,42.1054,-78.17784
31003047010000,Hazzard 2282,Iroquois Gas Corp.,PA,Allegany,42.10595,-78.19001
31003047020000,Hazzard 2283,Iroquois Gas Corp.,PA,Allegany,42.10761,-78.18891
31003047030000,Johnston 2284,Iroquois Gas Corp.,PA,Allegany,42.0966,-78.19001
31003047040000,Johnston 2285,Iroquois Gas Corp.,PA,Allegany,42.09853,-78.19001
31003047050000,Hatch Heirs 2287,Iroquois Gas Corp.,PA,Allegany,42.10513,-78.18375
31003047060000,Hatch Heirs 2286,Iroquois Gas Corp.,PA,Allegany,42.10486,-78.18669
31003047070000,Hazzard 2288,Iroquois Gas Corp.,PA,Allegany,42.10375,-78.17893999999998
31003047080000,Ballard 2289,Iroquois Gas Corp.,PA,Allegany,42.1098,-78.18484999999998
31003047100000,Ballard 2291,Iroquois Gas Corp.,PA,Allegany,42.10925,-78.18152999999998
31003047200000,Howard Gertrude 2269,Iroquois Gas Corp.,PA,Allegany,42.10402,-78.17082999999998
31003047330000,Hills Estate 1,Stengel J.C.,UN,Allegany,42.19403,-78.07132
31003047340000,Hills Estate 2,Stengel J.C.,PA,Allegany,42.19465,-78.07125
31003047350000,Hills Estate 3,Stengel J.C.,UN,Allegany,42.19465,-78.06994
31003047360000,Hills Estate 4,Stengel J.C.,UN,Allegany,42.19465,-78.06874
31003047370000,Hills Estate 5,Stengel J.C.,UN,Allegany,42.19465,-78.07244
31003047380000,Hills Estate 7,Stengel J.C.,UN,Allegany,42.19389,-78.07254
31003047390000,Hills Estate 8,Stengel J.C.,UN,Allegany,42.19376,-78.06994
31003047400000,Hills Estate 9,Shaner W.,UN,Allegany,42.19376,-78.06883999999998
31003047410000,Hills Record 12,Stengel J.C.,UN,Allegany,42.19307,-78.07124
31003047420000,Hills Estate W1,Stengel J.C.,UN,Allegany,42.19438,-78.07058999999998
31003047430000,Hills Estate W2,Stengel J.C.,UN,Allegany,42.19438,-78.07187999999998
31003047440000,Hills Estate W3,Stengel J.C.,UN,Allegany,42.1944,-78.07299999999998
31003047450000,Hills Estate W4,Stengel J.C.,UN,Allegany,42.19438,-78.06928999999998
31003047470000,Hills Estate W8,Stengel J.C.,UN,Allegany,42.19348,-78.07187999999998
31003047480000,Hills Estate W9,Stengel J.C.,UN,Allegany,42.1935,-78.0707
31003047490000,Hills Estate W10,Stengel J.C.,UN,Allegany,42.19348,-78.06939
31003047770000,Angell Earl P-1,Pennzoil Products Co.,PA,Allegany,42.19527,-77.9103
31003048250000,2 L. Potter,Outman Joshua J.,IN,Allegany,42.08197,-77.77203
31003048330000,Messer Oil Corp 1,Fairman Drilling Co.,PA,Allegany,42.06284,-78.12151
31003048490000,"Shaner, C.J. 1",Bradley Producing Corp.,PA,Allegany,42.1241,-78.1807
31003048650000,Homestead Oil 1,Fairman Drilling Co.,PA,Allegany,42.05948,-78.11174
31003048750000,Bassett 2205,Iroquois Gas Corp.,PA,Allegany,42.07185,-77.77774999999998
31003048760000,Rollins 2208,Iroquois Gas Corp.,PA,Allegany,42.0713,-77.77442999999998
31003048770000,Mingus 2228,Iroquois Gas Corp.,PA,Allegany,42.08863,-77.80764
31003048780000,Bassett 2198,Iroquois Gas Corp.,PA,Allegany,42.0768,-77.78217999999998
31003048790000,Bassett 2202,Iroquois Gas Corp.,PA,Allegany,42.07735,-77.7903
31003048800000,Bassett 2204,Iroquois Gas Corp.,PA,Allegany,42.0746,-77.77923
31003048810000,Crandall 2247,Iroquois Gas Corp.,PA,Allegany,42.09881,-77.76667999999998
31003048820000,Clark 2237,Iroquois Gas Corp.,PA,Allegany,42.0955,-77.77997
31003048830000,Tuller 2231,Iroquois Gas Corp.,PA,Allegany,42.08945,-77.79362
31003048840000,Tuller 2230,Iroquois Gas Corp.,PA,Allegany,42.0889,-77.79730999999998
31003048850000,Mingus 2227,Iroquois Gas Corp.,PA,Allegany,42.09001,-77.81097
31003048860000,Briggs 2220,Iroquois Gas Corp.,PA,Allegany,42.08643,-77.81945
31003048870000,Mattison 2179,Iroquois Gas Corp.,PA,Allegany,42.06938,-77.81648
31003048880000,Parker 2223,Iroquois Gas Corp.,PA,Allegany,42.0834,-77.82867
31003048890000,Clarke 2240,Iroquois Gas Corp.,PA,Allegany,42.0889,-77.76040999999998
31003048900000,Jones I-2184,Iroquois Gas Corp.,PA,Allegany,42.07873,-77.83161
31003048910000,Clark 2173,Iroquois Gas Corp.,PA,Allegany,42.05287,-77.83562999999998
31003048920000,2176,Iroquois Gas Corp.,PA,Allegany,42.0537,-77.82752
31003048930000,Barney 2191,Iroquois Gas Corp.,PA,Allegany,42.08588,-77.81243
31003048940000,Lot 2209,Iroquois Gas Corp.,PA,Allegany,42.0867,-77.76263
31003048950000,Schrader 2221,Iroquois Gas Corp.,PA,Allegany,42.08285,-77.82423
31003048960000,Briggs 2224,Iroquois Gas Corp.,PA,Allegany,42.08168,-77.83508
31003048970000,Hall 2225,Iroquois Gas Corp.,PA,Allegany,42.0834,-77.83894999999998
31003048980000,Green 2248,Iroquois Gas Corp.,PA,Allegany,42.09798,-77.78771999999998
31003048990000,Barney 2190,Iroquois Gas Corp.,PA,Allegany,42.07791,-77.81574999999998
31003049000000,Rollins 2206,Iroquois Gas Corp.,PA,Allegany,42.07791,-77.77442999999998
31003049010000,Clarke 2241,Iroquois Gas Corp.,PA,Allegany,42.08918,-77.75304
31003049250000,Charles W Lytle 1,Great Lakes Gas Corp.,PA,Allegany,42.29793,-77.95711
31003049440000,Clark 2172,Iroquois Gas Corp.,PA,Allegany,42.05535,-77.83269
31003049450000,Hall 2183,Iroquois Gas Corp.,PA,Allegany,42.06773,-77.82423
31003049460000,Nobels 2188,Iroquois Gas Corp.,PA,Allegany,42.07103,-77.80652999999998
31003049490000,Kenyon 2234,Iroquois Gas Corp.,PA,Allegany,42.08863,-77.78698
31003049500000,Lewis 2217,Iroquois Gas Corp.,PA,Allegany,42.07928,-77.79287999999998
31003049570000,Bassett 2201,Iroquois Gas Corp.,PA,Allegany,42.07983,-77.78255
31003049580000,Slade Lot 29 F-23,Sandstone Oil & Gas Development LLC,IN,Allegany,42.04583,-78.23945
31003049590000,Slade Lot 29 B-11,Sandstone Oil & Gas Development LLC,IN,Allegany,42.048035,-78.241888
31003049600000,Slade Lot 29 G-2,Sandstone Oil & Gas Development LLC,IN,Allegany,42.04528,-78.23846
31003049610000,Slade Lot 29 H-3,Sandstone Oil & Gas Development LLC,IN,Allegany,42.0438,-78.23767999999998
31003049620000,Slade Lot 29 E-45,Sandstone Oil & Gas Development LLC,IN,Allegany,42.04568,-78.23576799999998
31003049630000,Slade Lot 29 C-45,Sandstone Oil & Gas Development LLC,IN,Allegany,42.04717,-78.2358
31003049750000,Iroquois Gas Corp 2082,Iroquois Gas Corp.,PA,Allegany,42.00309,-78.06126
31003049760000,O Donnell 2094,Iroquois Gas Corp.,PA,Allegany,42.00034,-78.01447
31003049770000,O Donnell 2098,Iroquois Gas Corp.,PA,Allegany,41.9998,-78.00857
31003049780000,O Donnell 2099,Iroquois Gas Corp.,PA,Allegany,42.00255,-78.00857
31003049790000,O Donnell 2100,Iroquois Gas Corp.,PA,Allegany,41.9998,-78.01263
31003049800000,Olmstead 2115,Iroquois Gas Corp.,PA,Allegany,42.00915,-78.02845999999998
31003049810000,Dickerson 2118,Iroquois Gas Corp.,PA,Allegany,42.00805,-78.03104
31003049830000,Voided Permit,Unknown,VP,Statewide,0.0,0.0
31003049850000,Seaver 2314,Iroquois Gas Corp.,PA,Allegany,42.06855,-77.84818
31003049900000,Hall 2302,Iroquois Gas Corp.,PA,Allegany,42.07543,-77.84964999999998
31003049910000,Baker 2261,Iroquois Gas Corp.,PA,Allegany,42.07543,-77.84339
31003049920000,Seaver 2260,Iroquois Gas Corp.,PA,Allegany,42.0691,-77.84744
31003049950000,Clark 30 02,The Richardson Petroleum Corporation,PA,Allegany,42.06806,-77.75660999999998
31003049960000,Clark 30 4,The Richardson Petroleum Corporation,PA,Allegany,42.068312,-77.756713
31003050090000,Clark 2178,Iroquois Gas Corp.,PA,Allegany,42.05645,-77.82716
31003050100000,Forsythe 2177,Iroquois Gas Corp.,PA,Allegany,42.05343,-77.82495
31003050250000,Lot 91 29-91,Bradley Producing Corp.,UN,Allegany,42.0377,-78.01936999999998
31003050360000,Stillman 02,The Richardson Petroleum Corporation,PA,Allegany,42.07653,-77.74844
31003050370000,Stillman 03,The Richardson Petroleum Corporation,IN,Allegany,42.07642,-77.75185
31003050380000,Fee 1,Menichino Joseph A. & Elizabeth A.,PA,Allegany,42.22614,-77.80785
31003050390000,Lot 54 3854,K-Arcy Corp.,PA,Allegany,42.02097,-78.02603999999998
31003050450000,"Baker, Gerald 1",Baker Todd,PA,Allegany,42.23357,-77.80146
31003050590000,Sidehill 34,Ebenezer Oil Co. Inc.,PA,Allegany,42.04385,-78.05274
31003050600000,K S Black Estate 1,Bradley Producing Corp.,PA,Allegany,42.18503,-77.94153
31003050670000,Vincent 172,Ebenezer Oil Co. Inc.,PA,Allegany,42.09939,-78.05789
31003050720000,Lot 54 4054,K-Arcy Corp.,PA,Allegany,42.02039,-78.02169999999998
31003050730000,Sidehill 35,Ebenezer Oil Co. Inc.,PA,Allegany,42.04281,-78.05254999999998
31003050750000,Lot 91 3791,K-Arcy Corp.,PA,Allegany,42.03803,-78.0279
31003050790000,Lot 78 17,Unknown,UN,Allegany,0.0,0.0
31003050800000,Sidehill 36,Ebenezer Oil Co. Inc.,PA,Allegany,42.04193,-78.05254999999998
31003050810000,Vincent 173,Ebenezer Oil Co. Inc.,PA,Allegany,42.09945,-78.06279999999998
31003050820000,Lot 55 5055,K-Arcy Corp.,PA,Allegany,42.02292,-78.01358
31003050990000,Sidehill 37,Ebenezer Oil Co. Inc.,PA,Allegany,42.04165,-78.05274
31003051020000,Vincent 174,Ebenezer Oil Co. Inc.,PA,Allegany,42.09949,-78.06360999999998
31003051030000,Lot 78 2678,K-Arcy Corp.,PA,Allegany,42.0323,-78.02482999999998
31003051110000,Stoney H + B 418,Ebenezer Oil Co. Inc.,PA,Allegany,42.04269,-78.05459999999998
31003051130000,Gray 182,Bradley Producing Corp.,PA,Allegany,42.12221,-78.23910999999998
31003051310000,Gowdy 67,Haskins Oil Co.,UL,Allegany,42.09054,-78.02001
31003051320000,New Vincent 36,Ebenezer Oil Co. Inc.,PA,Allegany,42.09949,-78.06453
31003051330000,Harold and Bayard 419,Ebenezer Oil Co. Inc.,PA,Allegany,42.04179,-78.05451999999998
31003052050000,Stoney B E1 1,Bradley Producing Corp.,PA,Allegany,42.03365,-78.08786
31003052060000,Gowdy 68,Haskins Oil Co.,UL,Allegany,42.09197,-78.01967999999998
31003052120000,Voided Permit,Unknown,VP,Statewide,0.0,0.0
31003052210000,New Vincent 37,Ebenezer Oil Co. Inc.,PA,Allegany,42.09948,-78.06534
31003052220000,Sidehill Lease 38,Ebenezer Oil Co. Inc.,PA,Allegany,42.04237,-78.04497
31003052230000,Black 037,Ebenezer Oil Co. Inc.,PA,Allegany,42.03098,-78.03123999999998
31003052680000,Meadowbank mb10,C.O.G. Development & Resources Inc.,IN,Allegany,42.034721,-78.11734699999998
31003052730000,Black 038,Ebenezer Oil Co. Inc.,PA,Allegany,42.0315,-78.03123999999998
31003052740000,Sidehill 39,Ebenezer Oil Co. Inc.,PA,Allegany,42.04347,-78.04501
31003052790000,Stoney Lease 202,Bradley Producing Corp.,PA,Allegany,42.02746,-78.07118
31003052810000,Slade Lot 29 H-23,Sandstone Oil & Gas Development LLC,IN,Allegany,42.04373,-78.23846
31003052820000,New Vincent 38,Ebenezer Oil Co. Inc.,PA,Allegany,42.09949,-78.06624999999998
31003052930000,Nye 2189,Iroquois Gas Corp.,PA,Allegany,42.08643,-77.80911999999998
31003052940000,Clark 2212,Iroquois Gas Corp.,PA,Allegany,42.0856,-77.78180999999998
31003052950000,Tuller 2229,Iroquois Gas Corp.,PA,Allegany,42.08973,-77.80005
31003052960000,Clark 2235,Iroquois Gas Corp.,PA,Allegany,42.09275,-77.78292999999998
31003052970000,Clark 2238,Iroquois Gas Corp.,PA,Allegany,42.09275,-77.77959
31003052980000,Green 2249,Iroquois Gas Corp.,PA,Allegany,42.09881,-77.75377
31003052990000,Slade Lot 29 H-34,Sandstone Oil & Gas Development LLC,IN,Allegany,42.04381,-78.23661
31003053050000,Austin-Bayard 16,Klein Oil & Logging,AC,Allegany,42.08059,-77.75606999999998
31003053060000,Austin 17,The Richardson Petroleum Corporation,PA,Allegany,42.07829,-77.75602
31003053070000,Black 039,Ebenezer Oil Co. Inc.,PA,Allegany,42.03321,-78.03123999999998
31003053120000,Stoney Lease 184,Bradley Producing Corp.,PA,Allegany,42.02647,-78.06594
31003053230000,Sidehill 40,Ebenezer Oil Co. Inc.,PA,Allegany,42.04124,-78.04504
31003053260000,Quick 5,Ebenezer Oil Co. Inc.,PA,Allegany,42.04167,-78.01563
31003053330000,Greene 263,Plants and Goodwin Inc.,PA,Allegany,42.06553,-78.08527999999998
31003053340000,Greene 264,Plants and Goodwin Inc.,PA,Allegany,42.06635,-78.08527999999998
31003053380000,Stoney Lease 234,Bradley Producing Corp.,PA,Allegany,42.02735,-78.07402
31003053390000,Austin-Bayard 18,Klein Oil & Logging,AC,Allegany,42.08123,-77.75346999999998
31003053420000,Vincent & York 041,Ebenezer Oil Co. Inc.,PA,Allegany,42.09983,-78.06149
31003053430000,Chris 6,Ebenezer Oil Co. Inc.,PA,Allegany,42.0449,-78.01900999999998
31003053480000,Slade Lot 29 G-45,Sandstone Oil & Gas Development LLC,IN,Allegany,42.044498,-78.23576799999998
31003053490000,Green 265,Plants and Goodwin Inc.,PA,Allegany,42.06717,-78.08527999999998
31003053570000,Quinn 2144,Iroquois Gas Corp.,PA,Allegany,42.00034,-78.00194
31003053580000,Morrison 2135,Iroquois Gas Corp.,PA,Allegany,42.01052,-78.00783
31003053590000,Stebbins 2132,Iroquois Gas Corp.,PA,Allegany,42.01052,-78.01778
31003053600000,Quinby 2114,Iroquois Gas Corp.,PA,Allegany,42.00859,-78.03363
31003053610000,Nobles 2187,Iroquois Gas Corp.,PA,Allegany,42.07378,-77.81317
31003053620000,Bassett 2199,Iroquois Gas Corp.,PA,Allegany,42.07515,-77.78918
31003053630000,Rollins 2207,Iroquois Gas Corp.,PA,Allegany,42.07406,-77.77517
31003053640000,Nolan 2107,Iroquois Gas Corp.,PA,Allegany,42.00034,-77.98749999999998
31003053650000,Moore 2102,Iroquois Gas Corp.,PA,Allegany,42.00062,-77.99082
31003053660000,Briggs 2219,Iroquois Gas Corp.,PA,Allegany,42.09331,-77.8176
31003053670000,Clark 2236,Iroquois Gas Corp.,PA,Allegany,42.09275,-77.78771999999998
31003053690000,Vincent 175,Ebenezer Oil Co. Inc.,PA,Allegany,42.09949,-78.06197
31003053700000,Sidehill 41,Ebenezer Oil Co. Inc.,PA,Allegany,42.04014,-78.04504
31003053760000,Green 266,Plants and Goodwin Inc.,PA,Allegany,42.06619,-78.08611
31003053780000,Stoney Lease 130,Bradley Producing Corp.,PA,Allegany,42.02713,-78.06635
31003053800000,Quintette-Bledsoe 34,The Richardson Petroleum Corporation,PA,Allegany,42.07331,-77.76237
31003053810000,Potter 11,The Richardson Petroleum Corporation,PA,Allegany,42.07617,-77.76251999999998
31003053860000,Slade Lot 29 I-33,Sandstone Oil & Gas Development LLC,IN,Allegany,42.043298,-78.238701
31003053880000,Stoney Lease 189,Bradley Producing Corp.,PA,Allegany,42.02897,-78.07054999999998
31003053920000,Grenn 267,Plants and Goodwin Inc.,PA,Allegany,42.06635,-78.08527999999998
31003053930000,Lot 92 05e 5,Ebenezer Oil Co. Inc.,PA,Allegany,42.03439,-78.03161
31003053940000,Vincent 0176,Ebenezer Oil Co. Inc.,PA,Allegany,42.09976,-78.0687
31003053990000,Greene 268,Plants and Goodwin Inc.,PA,Allegany,42.06965,-78.08527999999998
31003054110000,Gadsby 2155,Iroquois Gas Corp.,PA,Allegany,42.00419,-78.10002
31003054120000,Rathbone 2156,Iroquois Gas Corp.,PA,Allegany,42.00557,-78.0989
31003054130000,Rathbone 2157,Iroquois Gas Corp.,PA,Allegany,42.00805,-78.09963999999998
31003054140000,Freeman 2137,Iroquois Gas Corp.,PA,Allegany,42.06525,-77.9931
31003054150000,Freeman 2138,Iroquois Gas Corp.,PA,Allegany,42.06663,-77.99237999999998
31003054160000,Freeman 2139,Iroquois Gas Corp.,PA,Allegany,42.06855,-77.99052
31003054170000,Freeman 2140,Iroquois Gas Corp.,PA,Allegany,42.06415,-77.99567999999998
31003054180000,Freeman 2141,Iroquois Gas Corp.,PA,Allegany,42.07103,-77.98868
31003054190000,Regan 2142,Iroquois Gas Corp.,PA,Allegany,42.0702,-77.97909
31003054200000,Regan 2143,Iroquois Gas Corp.,PA,Allegany,42.06745,-77.97798
31003054210000,Lewis 2215,Iroquois Gas Corp.,PA,Allegany,42.0856,-77.79289
31003054220000,Lewis 2216,Iroquois Gas Corp.,PA,Allegany,42.08313,-77.79657
31003054270000,Clark Dan 2254,Iroquois Gas Corp.,PA,Allegany,42.04628,-77.84411
31003054370000,Chris 7,Ebenezer Oil Co. Inc.,PA,Allegany,42.04663,-78.01546999999998
31003054380000,Quintette-Bledsoe 35,The Richardson Petroleum Corporation,PA,Allegany,42.0724,-77.76241
31003054400000,Vincent 0177,Ebenezer Oil Co. Inc.,PA,Allegany,42.09976,-78.06962
31003054410000,Lot 92 Alma Hill 06e,Ebenezer Oil Co. Inc.,PA,Allegany,42.0348,-78.03143
31003054460000,Meadowbank mb11,C.O.G. Development & Resources Inc.,IN,Allegany,42.035222,-78.118155
31003054480000,Vincent 0178,Ebenezer Oil Co. Inc.,PA,Allegany,42.09976,-78.06220999999998
31003054570000,Norton-Clark 09,The Richardson Petroleum Corporation,PA,Allegany,42.06645,-77.75758999999998
31003054580000,Clark-Norton 010,The Richardson Petroleum Corporation,PA,Allegany,42.06642,-77.75870999999998
31003054590000,Clark-Norton 011,The Richardson Petroleum Corporation,PA,Allegany,42.06642,-77.75978
31003054600000,Clark-Norton 012,The Richardson Petroleum Corporation,EX,Allegany,0.0,0.0
31003054610000,Vincent W-43,Ebenezer Oil Co. Inc.,PA,Allegany,42.09979,-78.07136
31003054620000,Polly 20,Moose Oil Co.,PA,Allegany,42.024789,-78.11301799999998
31003054630000,Alma Hill Lot 79 1579,Estate of James Robert Wells,AC,Allegany,42.02989,-78.008016
31003054680000,Vincent W-44,Ebenezer Oil Co. Inc.,PA,Allegany,42.09979,-78.07228
31003054790000,Elliott(IGC #2080) 1,Iroquois Gas Corp.,PA,Allegany,42.00144,-78.07194
31003054800000,Seamons IGC-2124,Iroquois Gas Corp.,PA,Allegany,42.00653,-78.04618
31003054810000,2125,Iroquois Gas Corp.,PA,Allegany,42.00529,-78.05316
31003054860000,Vincent w-45,Ebenezer Oil Co. Inc.,PA,Allegany,42.09913,-78.06682
31003054880000,Alma Hill Lot 79 1679,Estate of James Robert Wells,AC,Allegany,42.02871,-78.008075
31003054900000,Olmstead Ogc-2116,Iroquois Gas Corp.,PA,Allegany,42.00928,-78.02589
31003054910000,Voided Permit,Unknown,VP,Statewide,0.0,0.0
31003055010000,Black 40,Day James W,PA,Allegany,42.02988,-78.02988
31003055030000,Quintette-Bledsoe 36,The Richardson Petroleum Corporation,PA,Allegany,42.07034,-77.76255
31003055040000,Bledsoe 41,The Richardson Petroleum Corporation,PA,Allegany,42.07182,-77.7641
31003055050000,7-79,Estate of James Robert Wells,IN,Allegany,42.02987,-78.00613
31003055080000,Neff 0110,Ebenezer Oil Co. Inc.,PA,Allegany,42.09473,-78.05697999999998
31003055100000,Clair 1,Quaker State Corp.,PA,Allegany,42.08011,-78.05292
31003055150000,Voided Permit,Ebenezer Oil Co. Inc.,VP,Allegany,42.09596,-78.05708
31003055170000,Neff 112,Ebenezer Oil Co. Inc.,PA,Allegany,42.09547,-78.0575
31003055180000,13-79,Estate of James Robert Wells,IN,Allegany,42.032421,-78.00794
31003055290000,Black 41,Klein Oil & Logging,PA,Allegany,42.03178,-78.03272
31003055390000,Trio 501,Saint John Exploration & Production Inc.,IN,Allegany,42.07713,-78.09390999999998
31003055480000,Austin 19,The Richardson Petroleum Corporation,IN,Allegany,42.0773,-77.75262999999998
31003055540000,Wheeler B-1,J. J. Bucher Producing Corporation,IN,Allegany,42.01368,-78.16453
31003057770000,Alma Hill 2-78,K-Arcy Corp.,PA,Allegany,42.03104,-78.01667999999998
31003057780000,Austin-Bayard 20,Klein Oil & Logging,PA,Allegany,42.0773,-77.75447
31003057850000,Lot 92-93 7e,Day James W,PA,Allegany,42.03422,-78.03253999999998
31003057860000,Neff 114,Ebenezer Oil Co. Inc.,PA,Allegany,42.09668,-78.05687
31003057870000,Neff 113,Ebenezer Oil Co. Inc.,PA,Allegany,42.09624,-78.05745
31003057880000,Black 42,Ebenezer Oil Co. Inc.,PA,Allegany,42.03224,-78.03014
31003057970000,Middaugh 1,Middaugh Vincent,UN,Allegany,42.197691,-78.029008
31003058010000,Alma Hill 46-79,K-Arcy Corp.,PA,Allegany,42.03106,-78.01439999999998
31003058040000,Austin-Bayard 21,Klein Oil & Logging,PA,Allegany,42.0773,-77.75636
31003058060000,Davie 052,Bradley Producing Corp.,PA,Allegany,42.0356,-78.17767999999998
31003058070000,Davie 42,Bradley Producing Corp.,PA,Allegany,42.03615,-78.17709
31003058080000,Davie 41,Bradley Producing Corp.,PA,Allegany,42.03601,-78.17845
31003058090000,Davie 053,Bradley Producing Corp.,PA,Allegany,42.03574,-78.17632
31003058100000,Rolls 1,Bradley Producing Corp.,PA,Allegany,42.07199,-78.06942999999998
31003058110000,Rolls 18-75,Bradley Producing Corp.,PA,Allegany,42.07478,-78.06995
31003058120000,Rolls 20-76,Bradley Producing Corp.,PA,Allegany,42.07358,-78.06995
31003058130000,Rolls 21-77,Bradley Producing Corp.,PA,Allegany,42.07291,-78.06994
31003058140000,Rolls 22-78,Bradley Producing Corp.,PA,Allegany,42.07223,-78.06994
31003058150000,Rolls 19-60,Bradley Producing Corp.,PA,Allegany,42.07424,-78.06995
31003058160000,Rolls 23,Bradley Producing Corp.,PA,Allegany,42.07256,-78.06939
31003058170000,Rolls 24,Bradley Producing Corp.,PA,Allegany,42.07322,-78.06939
31003058180000,Rolls 24-79,Bradley Producing Corp.,PA,Allegany,42.07166,-78.07007
31003058190000,Rolls 25,Bradley Producing Corp.,PA,Allegany,42.07438,-78.0693
31003058200000,Rolls 222,Bradley Producing Corp.,PA,Allegany,42.07248,-78.06873
31003058210000,Rolls 239,Bradley Producing Corp.,PA,Allegany,42.07342,-78.06873
31003058220000,Rolls 240,Bradley Producing Corp.,PA,Allegany,42.07402,-78.06811999999998
31003058230000,Rolls 256,Bradley Producing Corp.,PA,Allegany,42.07437,-78.06873
31003058240000,Rolls 257,Bradley Producing Corp.,PA,Allegany,42.07472,-78.06811999999998
31003058250000,Clair 45,Bradley Producing Corp.,PA,Allegany,42.0855,-78.05656
31003058260000,Clair 44,Bradley Producing Corp.,PA,Allegany,42.0855,-78.05737
31003058270000,Clair A-044,Bradley Producing Corp.,PA,Allegany,42.08192,-78.05526999999998
31003058280000,Clair 43,Bradley Producing Corp.,PA,Allegany,42.0855,-78.05822
31003058290000,Clair A-043,Bradley Producing Corp.,PA,Allegany,42.08189,-78.05607999999998
31003058300000,Clair A-042,Bradley Producing Corp.,PA,Allegany,42.08189,-78.05688999999998
31003058310000,Clair A-041,Bradley Producing Corp.,PA,Allegany,42.08189,-78.05769999999998
31003058320000,Clair A-039,Bradley Producing Corp.,PA,Allegany,42.08249,-78.05526999999998
31003058330000,Clair 38,Bradley Producing Corp.,PA,Allegany,42.08385,-78.05807
31003058340000,Clair A-038,Bradley Producing Corp.,PA,Allegany,42.08249,-78.05607999999998
31003058350000,Clair A-037,Bradley Producing Corp.,PA,Allegany,42.08247,-78.05688999999998
31003058360000,Clair 36,Bradley Producing Corp.,PA,Allegany,42.08337,-78.05822
31003058370000,Clair A-036,Bradley Producing Corp.,PA,Allegany,42.08244,-78.05769999999998
31003058380000,Clair A-033,Bradley Producing Corp.,PA,Allegany,42.08307,-78.05611
31003058390000,Clair A-032,Bradley Producing Corp.,PA,Allegany,42.08304,-78.05692999999998
31003058400000,Clair A-031,Bradley Producing Corp.,PA,Allegany,42.08304,-78.05036
31003058410000,Clair A-030,Bradley Producing Corp.,PA,Allegany,42.08302,-78.05858999999998
31003058420000,Clair A-028,Bradley Producing Corp.,PA,Allegany,42.08355,-78.05612
31003058430000,Clair A-027,Bradley Producing Corp.,PA,Allegany,42.08352,-78.05692999999998
31003058440000,Clair A-026,Bradley Producing Corp.,PA,Allegany,42.0835,-78.05773999999998
31003058450000,Clair A-025,Bradley Producing Corp.,PA,Allegany,42.0835,-78.05858999999998
31003058460000,Clair A-022,Bradley Producing Corp.,PA,Allegany,42.08407,-78.05692999999998
31003058470000,Clair A-021,Bradley Producing Corp.,PA,Allegany,42.08407,-78.05777999999998
31003058480000,Clair A-020,Bradley Producing Corp.,PA,Allegany,42.08407,-78.05862
31003058490000,Clair A-018,Bradley Producing Corp.,PA,Allegany,42.08468,-78.05612
31003058500000,Clair A-017,Bradley Producing Corp.,PA,Allegany,42.08468,-78.05696
31003058510000,Clair A-016,Bradley Producing Corp.,PA,Allegany,42.08465,-78.05777999999998
31003058520000,Clair A-015,Bradley Producing Corp.,PA,Allegany,42.08462,-78.05862
31003058530000,Clair A-013,Bradley Producing Corp.,PA,Allegany,42.08528,-78.05615
31003058540000,Clair A-012,Bradley Producing Corp.,PA,Allegany,42.08526,-78.05696
31003058550000,Clair A-011,Bradley Producing Corp.,PA,Allegany,42.08523,-78.05781
31003058560000,Clair A-010,Bradley Producing Corp.,PA,Allegany,42.0852,-78.05862
31003058570000,Clair A-08,Bradley Producing Corp.,PA,Allegany,42.08583,-78.05615
31003058580000,Clair A-07,Bradley Producing Corp.,PA,Allegany,42.08581,-78.05696
31003058590000,Clair A-06,Bradley Producing Corp.,PA,Allegany,42.08578,-78.05781
31003058600000,Clair 67,Bradley Producing Corp.,PA,Allegany,42.08219,-78.05732999999998
31003058610000,Clair 067,Bradley Producing Corp.,PA,Allegany,42.08249,-78.05423
31003058620000,Clair 66,Bradley Producing Corp.,PA,Allegany,42.08216,-78.05851
31003058630000,Clair 066,Bradley Producing Corp.,PA,Allegany,42.08307,-78.05427
31003058640000,Clair 64,Bradley Producing Corp.,PA,Allegany,42.08277,-78.05652
31003058650000,Clair 63,Bradley Producing Corp.,PA,Allegany,42.08277,-78.05732999999998
31003058660000,Clair 62,Bradley Producing Corp.,PA,Allegany,42.08274,-78.05851
31003058670000,Clair 60,Bradley Producing Corp.,PA,Allegany,42.08335,-78.05652
31003058680000,Clair 59,Bradley Producing Corp.,PA,Allegany,42.08332,-78.05732999999998
31003058690000,Clair A059,Bradley Producing Corp.,PA,Allegany,42.08016,-78.05522999999998
31003058700000,Clair A058,Bradley Producing Corp.,PA,Allegany,42.08016,-78.05603999999998
31003058710000,Clair 57,Bradley Producing Corp.,PA,Allegany,42.08385,-78.05652
31003058720000,Clair A057,Bradley Producing Corp.,PA,Allegany,42.08016,-78.05684999999998
31003058730000,Clair 56,Bradley Producing Corp.,PA,Allegany,42.08383,-78.05696
31003058740000,Clair 55,Bradley Producing Corp.,PA,Allegany,42.0838,-78.05854999999998
31003058750000,Clair 54,Bradley Producing Corp.,PA,Allegany,42.0844,-78.05575
31003058760000,Clair A054,Bradley Producing Corp.,PA,Allegany,42.08073,-78.05522999999998
31003058770000,Clair 53,Bradley Producing Corp.,PA,Allegany,42.0844,-78.05656
31003058780000,Clair A053,Bradley Producing Corp.,PA,Allegany,42.08073,-78.05603999999998
31003058790000,Clair 52,Bradley Producing Corp.,PA,Allegany,42.08438,-78.05737
31003058800000,Clair A052,Bradley Producing Corp.,PA,Allegany,42.08073,-78.05684999999998
31003058810000,Clair 51,Bradley Producing Corp.,PA,Allegany,42.08438,-78.05854999999998
31003058820000,Clair 50,Bradley Producing Corp.,PA,Allegany,42.08501,-78.05575
31003058830000,Clair 49,Bradley Producing Corp.,PA,Allegany,42.08495,-78.05652
31003058840000,Clair A049,Bradley Producing Corp.,PA,Allegany,42.08131,-78.05526999999998
31003058850000,Clair 48,Bradley Producing Corp.,PA,Allegany,42.08493,-78.05741
31003058860000,Clair A048,Bradley Producing Corp.,PA,Allegany,42.08131,-78.05607999999998
31003058870000,Clair 47,Bradley Producing Corp.,PA,Allegany,42.08493,-78.05854999999998
31003058880000,Clair A-047,Bradley Producing Corp.,PA,Allegany,42.08131,-78.05688999999998
31003058890000,Clair A046,Bradley Producing Corp.,PA,Allegany,42.08131,-78.05769999999998
31003058900000,Bascom 1,Bradley Producing Corp.,PA,Allegany,42.06882,-78.07297
31003058910000,Bascom 3,Bradley Producing Corp.,PA,Allegany,42.06865,-78.06991999999998
31003058920000,Bascom 5,Bradley Producing Corp.,PA,Allegany,42.06981,-78.06964999999998
31003058930000,Bascom 6,Bradley Producing Corp.,PA,Allegany,42.07105,-78.07441
31003058940000,Bascom 8,Bradley Producing Corp.,PA,Allegany,42.07098,-78.07286
31003058950000,Bascom 10,Bradley Producing Corp.,PA,Allegany,42.07102,-78.07116
31003058960000,Bascom 11,Bradley Producing Corp.,PA,Allegany,42.07097,-78.06968999999998
31003058970000,Bascom 14,Bradley Producing Corp.,PA,Allegany,42.07094,-78.06792
31003058980000,Bascom 15,Bradley Producing Corp.,PA,Allegany,42.06979,-78.07053
31003058990000,Bascom 17,Bradley Producing Corp.,PA,Allegany,42.07032,-78.0712
31003059000000,Bascom 18,Bradley Producing Corp.,PA,Allegany,42.06915,-78.07123
31003059010000,Bascom 022,Bradley Producing Corp.,PA,Allegany,42.07157,-78.07412999999998
31003059020000,Bascom 023,Bradley Producing Corp.,PA,Allegany,42.07155,-78.07326
31003059030000,Bascom 024,Bradley Producing Corp.,PA,Allegany,42.07152,-78.07245
31003059040000,Bascom 025,Bradley Producing Corp.,PA,Allegany,42.07155,-78.0716
31003059050000,Bascom 026,Bradley Producing Corp.,PA,Allegany,42.07155,-78.07076
31003059060000,Bascom 27,Bradley Producing Corp.,PA,Allegany,42.0712,-78.06933999999998
31003059070000,Bascom 28,Bradley Producing Corp.,PA,Allegany,42.071,-78.07039
31003059080000,Bascom 29,Bradley Producing Corp.,PA,Allegany,42.071,-78.07201
31003059090000,Bascom 30,Bradley Producing Corp.,PA,Allegany,42.07098,-78.07371
31003059100000,Bascom 158,Bradley Producing Corp.,PA,Allegany,42.06855,-78.07463
31003059110000,Bascom 159,Bradley Producing Corp.,PA,Allegany,42.06845,-78.0738
31003059120000,Bascom 160,Bradley Producing Corp.,PA,Allegany,42.06841,-78.07293
31003059130000,Bascom 161,Bradley Producing Corp.,PA,Allegany,42.06841,-78.07208
31003059140000,Bascom 162,Bradley Producing Corp.,PA,Allegany,42.0684,-78.07123
31003059150000,Bascom 163,Bradley Producing Corp.,PA,Allegany,42.06838,-78.07036999999998
31003059160000,Bascom 164,Bradley Producing Corp.,PA,Allegany,42.06838,-78.06935
31003059170000,Bascom 165,Bradley Producing Corp.,PA,Allegany,42.06838,-78.06814
31003059180000,Bascom 0174,Bradley Producing Corp.,PA,Allegany,42.06882,-78.06754999999998
31003059190000,Bascom 175,Bradley Producing Corp.,PA,Allegany,42.06928,-78.06814
31003059200000,Bascom 0184,Bradley Producing Corp.,PA,Allegany,42.06973,-78.06753
31003059210000,Bascom 185,Bradley Producing Corp.,PA,Allegany,42.0702,-78.06814
31003059220000,Bascom 0194,Bradley Producing Corp.,PA,Allegany,42.07063,-78.06753
31003059230000,Bascom 195,Bradley Producing Corp.,PA,Allegany,42.07108,-78.06811999999998
31003059240000,Bascom 0204,Bradley Producing Corp.,PA,Allegany,42.07155,-78.06751
31003059250000,Bascom 0205,Bradley Producing Corp.,PA,Allegany,42.07155,-78.06873
31003059260000,Bascom 210,Bradley Producing Corp.,PA,Allegany,42.06942,-78.07459
31003059270000,Bascom 211,Bradley Producing Corp.,PA,Allegany,42.07023,-78.07452
31003059280000,Bascom 0212,Bradley Producing Corp.,PA,Allegany,42.06891,-78.07421999999998
31003059290000,Bascom 0213,Bradley Producing Corp.,PA,Allegany,42.06977,-78.07419
31003059300000,Bascom 0214,Bradley Producing Corp.,PA,Allegany,42.07053,-78.07419
31003059310000,Bascom 215,Bradley Producing Corp.,PA,Allegany,42.06935,-78.07378
31003059320000,Bascom 216,Bradley Producing Corp.,PA,Allegany,42.07014,-78.07375999999998
31003059330000,Bascom 0217,Bradley Producing Corp.,PA,Allegany,42.06885,-78.07334
31003059340000,Bascom 0218,Bradley Producing Corp.,PA,Allegany,42.06976,-78.07334
31003059350000,Bascom 0219,Bradley Producing Corp.,PA,Allegany,42.07053,-78.0733
31003059360000,Bascom 220,Bradley Producing Corp.,PA,Allegany,42.06931,-78.07293
31003059370000,Bascom 221,Bradley Producing Corp.,PA,Allegany,42.07014,-78.07289
31003059380000,Bascom 0222,Bradley Producing Corp.,PA,Allegany,42.06885,-78.07249
31003059390000,Bascom 0223,Bradley Producing Corp.,PA,Allegany,42.06976,-78.07249
31003059400000,Bascom 0224,Bradley Producing Corp.,PA,Allegany,42.07052,-78.07249
31003059410000,Bascom 225,Bradley Producing Corp.,PA,Allegany,42.06929,-78.07208
31003059420000,Bascom 226,Bradley Producing Corp.,PA,Allegany,42.07012,-78.07205
31003059430000,Bascom 0227,Bradley Producing Corp.,PA,Allegany,42.06885,-78.07164
31003059440000,Bascom 0228,Bradley Producing Corp.,PA,Allegany,42.06976,-78.07164
31003059450000,Bascom 0229,Bradley Producing Corp.,PA,Allegany,42.07047,-78.0716
31003059460000,Bascom 231,Bradley Producing Corp.,PA,Allegany,42.07012,-78.07452
31003059470000,Bascom 0232,Bradley Producing Corp.,PA,Allegany,42.06885,-78.07311
31003059480000,Bascom 0233,Bradley Producing Corp.,PA,Allegany,42.06973,-78.07312
31003059490000,Bascom 0234,Bradley Producing Corp.,PA,Allegany,42.07047,-78.07079
31003059500000,Bascom 235,Bradley Producing Corp.,PA,Allegany,42.06929,-78.07039
31003059510000,Bascom 236,Bradley Producing Corp.,PA,Allegany,42.07017,-78.07029
31003059520000,Bascom 0237,Bradley Producing Corp.,PA,Allegany,42.06885,-78.06994
31003059530000,Bascom 0238,Bradley Producing Corp.,PA,Allegany,42.06973,-78.06994
31003059540000,Bascom 0239,Bradley Producing Corp.,PA,Allegany,42.07063,-78.06977999999998
31003059550000,Bascom 240,Bradley Producing Corp.,PA,Allegany,42.06929,-78.06935
31003059560000,Bascom 241,Bradley Producing Corp.,PA,Allegany,42.07014,-78.0693
31003059570000,Bascom 0242,Bradley Producing Corp.,PA,Allegany,42.06882,-78.06873
31003059580000,Bascom 0243,Bradley Producing Corp.,PA,Allegany,42.06973,-78.06873
31003059590000,Bascom 0244,Bradley Producing Corp.,PA,Allegany,42.07064,-78.06873
31003059600000,Fuller F10,Bradley Producing Corp.,PA,Allegany,42.1931,-77.96049999999998
31003059610000,Fuller F9,Bradley Producing Corp.,PA,Allegany,42.1924,-77.96062999999998
31003059620000,Fuller J10,Bradley Producing Corp.,PA,Allegany,42.19289,-77.96231
31003059630000,Fuller e10,Bradley Producing Corp.,PA,Allegany,42.19278,-77.96002
31003059640000,Fuller 3,Bradley Producing Corp.,PA,Allegany,42.19267,-77.96084999999998
31003059650000,Fuller D10,Bradley Producing Corp.,PA,Allegany,42.19308,-77.9593
31003059660000,Fuller H10,Bradley Producing Corp.,PA,Allegany,42.19321,-77.96164
31003059670000,Fuller H-9,Bradley Producing Corp.,PA,Allegany,42.19245,-77.96177
31003059680000,Fuller G10,Bradley Producing Corp.,PA,Allegany,42.19284,-77.96114
31003059690000,Fuller 22,Bradley Producing Corp.,PA,Allegany,42.1905,-77.96183
31003059700000,Fuller D8,Bradley Producing Corp.,PA,Allegany,42.19149,-77.95954
31003059710000,Fuller 7,Bradley Producing Corp.,PA,Allegany,42.1916,-77.95812999999998
31003059720000,Fuller F7,Bradley Producing Corp.,PA,Allegany,42.19073,-77.96076999999998
31003059730000,Fuller 5,Bradley Producing Corp.,PA,Allegany,42.19256,-77.95937
31003059740000,Fuller D9,Bradley Producing Corp.,PA,Allegany,42.19233,-77.95944
31003059750000,Fuller C9,Bradley Producing Corp.,PA,Allegany,42.19187,-77.95891
31003059760000,Fuller E11,Bradley Producing Corp.,PA,Allegany,42.19345,-77.95986999999998
31003059770000,Fuller C10,Bradley Producing Corp.,PA,Allegany,42.19273,-77.95870999999998
31003059780000,Fuller C11,Bradley Producing Corp.,PA,Allegany,42.19341,-77.95859
31003059790000,Fuller 1,Bradley Producing Corp.,PA,Allegany,42.19372,-77.9576
31003059800000,Fuller E9,Bradley Producing Corp.,PA,Allegany,42.19204,-77.96007
31003059810000,Fuller E8,Bradley Producing Corp.,PA,Allegany,42.19113,-77.96015
31003059820000,Fuller C8,Bradley Producing Corp.,PA,Allegany,42.19108,-77.95897999999998
31003059830000,Fuller G8,Bradley Producing Corp.,PA,Allegany,42.19119,-77.96130999999998
31003059840000,Fuller J8,Bradley Producing Corp.,PA,Allegany,42.19127,-77.96246999999998
31003059850000,Fuller G9,Bradley Producing Corp.,PA,Allegany,42.19201,-77.96124
31003059860000,Fuller 8,Bradley Producing Corp.,PA,Allegany,42.1926,-77.95775
31003059870000,Fuller B10,Bradley Producing Corp.,PA,Allegany,42.19303,-77.95773
31003059880000,Fuller P5,Bradley Producing Corp.,PA,Allegany,42.18947,-77.96539
31003059890000,Fuller M6,Bradley Producing Corp.,PA,Allegany,42.19014,-77.96427
31003059900000,Fuller K7,Bradley Producing Corp.,PA,Allegany,42.19086,-77.96308
31003059910000,Fuller J9,Bradley Producing Corp.,PA,Allegany,42.19207,-77.96237999999998
31003059920000,Fuller H7,Bradley Producing Corp.,PA,Allegany,42.19072,-77.96194
31003059930000,Clair 86,Bradley Producing Corp.,PA,Allegany,42.0833,-78.05816
31003059940000,Clair 70,Bradley Producing Corp.,PA,Allegany,42.08161,-78.05811
31003059950000,Clair 68,Bradley Producing Corp.,PA,Allegany,42.08219,-78.05652
31003059960000,Clair 71,Bradley Producing Corp.,PA,Allegany,42.08161,-78.0573
31003059970000,Clair 72,Bradley Producing Corp.,PA,Allegany,42.08161,-78.05652
31003059980000,Clair 74,Bradley Producing Corp.,PA,Allegany,42.08104,-78.05811
31003059990000,Clair 75,Bradley Producing Corp.,PA,Allegany,42.08104,-78.0573
31003060000000,Clair 076,Bradley Producing Corp.,PA,Allegany,42.08192,-78.05342
31003060010000,Clair 76,Bradley Producing Corp.,PA,Allegany,42.08104,-78.05647999999998
31003060020000,Clair 117,Bradley Producing Corp.,PA,Allegany,42.07994,-78.05160999999998
31003060030000,Clair 111,Bradley Producing Corp.,PA,Allegany,42.07992,-78.05257
31003060040000,Clair 110,Bradley Producing Corp.,PA,Allegany,42.08054,-78.05279
31003060050000,Clair 107,Bradley Producing Corp.,PA,Allegany,42.07988,-78.05299999999998
31003060060000,Clair 93,Bradley Producing Corp.,PA,Allegany,42.07987,-78.05455999999998
31003060070000,Clair 99,Bradley Producing Corp.,PA,Allegany,42.08046,-78.05379
31003060080000,Fuller K2,Bradley Producing Corp.,PA,Allegany,42.18695,-77.96348999999998
31003060090000,Fuller M3,Bradley Producing Corp.,PA,Allegany,42.18544,-77.96449
31003060100000,Fuller K9,Bradley Producing Corp.,PA,Allegany,42.19251,-77.96286
31003060110000,Fuller H8,Bradley Producing Corp.,PA,Allegany,42.19163,-77.96187
31003060120000,Fuller F8,Bradley Producing Corp.,PA,Allegany,42.19156,-77.96067999999998
31003060130000,Fuller K6,Bradley Producing Corp.,PA,Allegany,42.19004,-77.96316
31003060140000,Fuller M4,Bradley Producing Corp.,PA,Allegany,42.18854,-77.96445
31003060150000,Fuller 4,Bradley Producing Corp.,PA,Allegany,42.19185,-77.96209
31003060160000,Fuller 9,Bradley Producing Corp.,PA,Allegany,42.19149,-77.96029
31003060170000,Fuller 23,Bradley Producing Corp.,PA,Allegany,42.19114,-77.96367999999998
31003060180000,Fuller 24,Bradley Producing Corp.,PA,Allegany,42.19197,-77.96470999999998
31003060190000,Fuller 28,Bradley Producing Corp.,PA,Allegany,42.19039,-77.98334
31003060200000,Fuller K8,Bradley Producing Corp.,PA,Allegany,42.19169,-77.96297
31003060210000,Fuller L8,Bradley Producing Corp.,PA,Allegany,42.19132,-77.96362
31003060220000,Fuller N7,Bradley Producing Corp.,PA,Allegany,42.19064,-77.96477
31003060230000,Fuller N-8,Bradley Producing Corp.,PA,Allegany,42.19145,-77.96470999999998
31003060240000,Fuller M-7,Bradley Producing Corp.,PA,Allegany,42.19097,-77.96419
31003060250000,Fuller M8,Bradley Producing Corp.,PA,Allegany,42.1918,-77.96411999999998
31003060260000,Fuller P6,Bradley Producing Corp.,PA,Allegany,42.19029,-77.9653
31003060270000,Fuller P7,Bradley Producing Corp.,PA,Allegany,42.19108,-77.96527
31003060280000,Fuller P8,Bradley Producing Corp.,PA,Allegany,42.19193,-77.96521
31003060290000,Fuller F-5,Bradley Producing Corp.,PA,Allegany,42.18909,-77.96093999999998
31003060300000,Fuller 11,Bradley Producing Corp.,PA,Allegany,42.18905,-77.95989
31003060310000,Fuller D-4,Day James W,PA,Allegany,42.18812,-77.9598
31003060320000,Fuller 10,Bradley Producing Corp.,PA,Allegany,42.18914,-77.96134999999998
31003060330000,Fuller 18,Bradley Producing Corp.,PA,Allegany,42.18656,-77.96375
31003060340000,Fuller 19,Bradley Producing Corp.,PA,Allegany,42.18764,-77.96326999999998
31003060350000,Fuller 34,Bradley Producing Corp.,PA,Allegany,42.18835,-77.961
31003060360000,Fuller H-4,Bradley Producing Corp.,PA,Allegany,42.18832,-77.96218
31003060370000,Allen 182,Bradley Producing Corp.,PA,Allegany,42.08084,-78.06845
31003060380000,Allen 181,Bradley Producing Corp.,PA,Allegany,42.08145,-78.06838
31003060390000,Allen 22,Bradley Producing Corp.,PA,Allegany,42.08117,-78.06892999999998
31003060400000,Allen 0178,Bradley Producing Corp.,PA,Allegany,42.0805,-78.06793999999998
31003060410000,Allen 0180,Bradley Producing Corp.,PA,Allegany,42.08193,-78.06830999999998
31003060420000,Allen 0190,Bradley Producing Corp.,PA,Allegany,42.0805,-78.06896999999998
31003060430000,Allen 192,Bradley Producing Corp.,PA,Allegany,42.08087,-78.06945
31003060440000,Allen 199,Bradley Producing Corp.,PA,Allegany,42.08051,-78.06997
31003060450000,Allen 200,Bradley Producing Corp.,PA,Allegany,42.08094,-78.07015
31003060460000,Clair 078,Bradley Producing Corp.,PA,Allegany,42.08076,-78.05338
31003060500000,Sidehil 42,Ebenezer Oil Co. Inc.,PA,Allegany,42.04655,-78.05131
31003060510000,Lot 92 8e,Day James W,PA,Allegany,42.03541,-78.03261
31003060520000,Neff 0115,Ebenezer Oil Co. Inc.,PA,Allegany,42.09696,-78.05746999999998
31003060530000,Austin-Bayard 22,Klein Oil & Logging,PA,Allegany,42.079045,-77.757945
31003060540000,Austin 40-4,Klein Oil & Logging,AC,Allegany,42.07486,-77.76071
31003060550000,Vincent 179,Ebenezer Oil Co. Inc.,PA,Allegany,42.09267,-78.06058
31003060560000,Sidehill 43,Ebenezer Oil Co. Inc.,PA,Allegany,42.0455,-78.05128
31003060570000,Vincent 180,Ebenezer Oil Co. Inc.,PA,Allegany,42.10018,-78.06363
31003060580000,Sidehill 44,Ebenezer Oil Co. Inc.,EX,Allegany,42.04433,-78.05131
31003060590000,Alma Hill 45-79,K-Arcy Corp.,PA,Allegany,42.0323,-78.01439999999998
31003060720000,Lot 92-93 09e,Ebenezer Oil Co. Inc.,PA,Allegany,42.03733,-78.02848
31003060740000,Clair 079,Bradley Producing Corp.,PA,Allegany,42.08018,-78.05338
31003060750000,Clair 080,Bradley Producing Corp.,PA,Allegany,42.07961,-78.05338
31003060760000,Clair 082,Bradley Producing Corp.,PA,Allegany,42.08296,-78.0522
31003060770000,Clair 086,Bradley Producing Corp.,PA,Allegany,42.08027,-78.0522
31003060780000,Clair 085,Bradley Producing Corp.,PA,Allegany,42.08095,-78.0522
31003060790000,Clair 084,Bradley Producing Corp.,PA,Allegany,42.08164,-78.0522
31003060800000,Clair 083,Bradley Producing Corp.,PA,Allegany,42.0823,-78.0522
31003060810000,Clair 093,Bradley Producing Corp.,PA,Allegany,42.08027,-78.05101999999998
31003060820000,Clair 092,Bradley Producing Corp.,PA,Allegany,42.08095,-78.05101999999998
31003060830000,Clair 091,Bradley Producing Corp.,PA,Allegany,42.08163,-78.05101999999998
31003060840000,Clair 090,Bradley Producing Corp.,PA,Allegany,42.0823,-78.05101999999998
31003060850000,Clair 089,Bradley Producing Corp.,PA,Allegany,42.08299,-78.05101999999998
31003060860000,Clair 087,Bradley Producing Corp.,PA,Allegany,42.07961,-78.0522
31003060870000,Clair 0100,Bradley Producing Corp.,PA,Allegany,42.08027,-78.04980999999998
31003060880000,Clair 100,Bradley Producing Corp.,PA,Allegany,42.07988,-78.05374999999998
31003060890000,Clair 0101,Bradley Producing Corp.,PA,Allegany,42.07961,-78.04980999999998
31003060900000,Clair 095,Bradley Producing Corp.,PA,Allegany,42.08358,-78.04980999999998
31003060910000,Clair 099,Bradley Producing Corp.,PA,Allegany,42.08095,-78.04980999999998
31003060920000,Clair 098,Bradley Producing Corp.,PA,Allegany,42.08161,-78.04980999999998
31003060930000,Clair 097,Bradley Producing Corp.,PA,Allegany,42.0823,-78.04980999999998
31003060940000,Clair 096,Bradley Producing Corp.,PA,Allegany,42.08299,-78.04980999999998
31003060950000,Clair 071,Bradley Producing Corp.,PA,Allegany,42.08018,-78.05419999999998
31003060960000,Clair 069,Bradley Producing Corp.,PA,Allegany,42.08134,-78.05419999999998
31003060970000,Clair 068,Bradley Producing Corp.,PA,Allegany,42.08192,-78.05423
31003060980000,Clair 072,Bradley Producing Corp.,PA,Allegany,42.07958,-78.05415999999998
31003060990000,Clair 074,Bradley Producing Corp.,PA,Allegany,42.08307,-78.05346
31003061000000,Clair 075,Bradley Producing Corp.,PA,Allegany,42.08249,-78.05346
31003061010000,Clair 077,Bradley Producing Corp.,PA,Allegany,42.08132,-78.05342
31003061020000,Allen 203,Bradley Producing Corp.,PA,Allegany,42.08161,-78.06882
31003061030000,Allen 201,Bradley Producing Corp.,PA,Allegany,42.08178,-78.06774
31003061040000,Alma Hill Lot 91 12,Bradley Producing Corp.,PA,Allegany,42.0383,-78.02244
31003061050000,Alma Hill Lot 91 13,Bradley Producing Corp.,PA,Allegany,42.03846,-78.02487
31003061090000,Fuller L-6,Bradley Producing Corp.,PA,Allegany,42.18967,-77.96379
31003061100000,Fuller L-5,Bradley Producing Corp.,PA,Allegany,42.18885,-77.96385999999998
31003061110000,Fuller K-4,Bradley Producing Corp.,PA,Allegany,42.18838,-77.96331999999998
31003061120000,Fuller J-7,Bradley Producing Corp.,PA,Allegany,42.19043,-77.96254999999998
31003061130000,Fuller J-6,Bradley Producing Corp.,PA,Allegany,42.1896,-77.96262
31003061140000,Fuller H-3,Bradley Producing Corp.,PA,Allegany,42.18755,-77.96227
31003061150000,Fuller G-7,Bradley Producing Corp.,PA,Allegany,42.19036,-77.9614
31003061160000,Fuller G-6,Bradley Producing Corp.,PA,Allegany,42.18953,-77.9615
31003061170000,Fuller F-3,Bradley Producing Corp.,PA,Allegany,42.18747,-77.96112999999998
31003061180000,Fuller E-7,Bradley Producing Corp.,PA,Allegany,42.19031,-77.96024
31003061190000,Fuller D-3,Bradley Producing Corp.,PA,Allegany,42.18739,-77.95990999999998
31003061200000,Fuller B-4,Bradley Producing Corp.,PA,Allegany,42.18805,-77.95865
31003061210000,Fuller B-3,Bradley Producing Corp.,PA,Allegany,42.18744,-77.95872
31003061220000,Sawyer x-2,Bradley Producing Corp.,PA,Allegany,42.07177,-78.09194999999998
31003061230000,Sawyer x-3,Bradley Producing Corp.,PA,Allegany,42.07215,-78.09242999999998
31003061240000,Sawyer x-4,Bradley Producing Corp.,PA,Allegany,42.07216,-78.09162
31003061250000,Sawyer x-5,Bradley Producing Corp.,PA,Allegany,42.0715,-78.09241
31003061260000,Sawyer x-6,Bradley Producing Corp.,PA,Allegany,42.07149,-78.09162
31003061270000,Sawyer 8,Bradley Producing Corp.,PA,Allegany,42.06979,-78.09467999999998
31003061280000,Sawyer 35,Bradley Producing Corp.,PA,Allegany,42.07094,-78.09430999999998
31003061290000,Sawyer 36,Bradley Producing Corp.,PA,Allegany,42.07093,-78.09317
31003061300000,Sawyer 37,Bradley Producing Corp.,PA,Allegany,42.07091,-78.09202999999998
31003061310000,Sawyer 38,Bradley Producing Corp.,PA,Allegany,42.0709,-78.0909
31003061320000,Sawyer 39,Bradley Producing Corp.,PA,Allegany,42.07089,-78.08976
31003061330000,Sawyer 40,Bradley Producing Corp.,PA,Allegany,42.07089,-78.08861
31003061340000,Sawyer 41,Bradley Producing Corp.,PA,Allegany,42.07097,-78.09546
31003061350000,Sawyer 42,Bradley Producing Corp.,PA,Allegany,42.07097,-78.09659999999998
31003061360000,Sawyer 46,Bradley Producing Corp.,PA,Allegany,42.0705,-78.09483
31003061370000,Sawyer 47,Bradley Producing Corp.,PA,Allegany,42.07045,-78.09072999999998
31003061380000,Sawyer 48,Bradley Producing Corp.,PA,Allegany,42.07045,-78.09254
31003061390000,Sawyer 49,Bradley Producing Corp.,PA,Allegany,42.07045,-78.09139999999998
31003061400000,Sawyer 50,Bradley Producing Corp.,PA,Allegany,42.07045,-78.09028999999998
31003061410000,Sawyer 51,Bradley Producing Corp.,PA,Allegany,42.07042,-78.0892
31003061420000,Sawyer 52,Bradley Producing Corp.,PA,Allegany,42.06995,-78.08862999999998
31003061430000,Sawyer 53,Bradley Producing Corp.,PA,Allegany,42.06995,-78.08969999999998
31003061440000,Sawyer 54,Bradley Producing Corp.,PA,Allegany,42.06996,-78.09077
31003061450000,Sawyer 55,Bradley Producing Corp.,PA,Allegany,42.06998,-78.09192
31003061460000,Sawyer 57,Bradley Producing Corp.,PA,Allegany,42.07001,-78.09444
31003061470000,Sawyer 65,Bradley Producing Corp.,PA,Allegany,42.06965,-78.09327999999998
31003061480000,Sawyer 66,Bradley Producing Corp.,PA,Allegany,42.06959,-78.09238999999998
31003061490000,Sawyer 68,Bradley Producing Corp.,PA,Allegany,42.06915,-78.09082999999998
31003061500000,Sawyer 69,Bradley Producing Corp.,PA,Allegany,42.06918,-78.09184
31003061510000,Sawyer 70,Bradley Producing Corp.,PA,Allegany,42.06921,-78.09283999999998
31003061520000,Sawyer 72,Bradley Producing Corp.,PA,Allegany,42.07135,-78.08919
31003061530000,Sawyer 73,Bradley Producing Corp.,PA,Allegany,42.07135,-78.09031
31003061540000,Sawyer 74,Bradley Producing Corp.,PA,Allegany,42.07138,-78.09144999999998
31003061550000,Sawyer 75,Bradley Producing Corp.,PA,Allegany,42.07138,-78.09258
31003061560000,Sawyer 76,Bradley Producing Corp.,PA,Allegany,42.07141,-78.09372
31003061570000,Sawyer 77,Bradley Producing Corp.,PA,Allegany,42.07142,-78.09487
31003061580000,Sawyer 78,Bradley Producing Corp.,PA,Allegany,42.07144,-78.09601
31003061590000,Sawyer 79,Bradley Producing Corp.,PA,Allegany,42.07146,-78.09715
31003061600000,Sawyer 80,Bradley Producing Corp.,PA,Allegany,42.07182,-78.0886
31003061610000,Sawyer 81,Bradley Producing Corp.,PA,Allegany,42.07182,-78.08974
31003061620000,Sawyer 82,Bradley Producing Corp.,PA,Allegany,42.07182,-78.09088
31003061630000,Sawyer 83,Bradley Producing Corp.,PA,Allegany,42.07182,-78.09202999999998
31003061640000,Sawyer 84,Bradley Producing Corp.,PA,Allegany,42.07182,-78.09317
31003061650000,Sawyer 85,Bradley Producing Corp.,PA,Allegany,42.07186,-78.09428
31003061660000,Sawyer 86,Bradley Producing Corp.,PA,Allegany,42.07188,-78.09542
31003061670000,Sawyer 87,Bradley Producing Corp.,PA,Allegany,42.0719,-78.09655999999998
31003061680000,Sawyer 88,Bradley Producing Corp.,PA,Allegany,42.07193,-78.09771
31003061690000,Sawyer 22,Bradley Producing Corp.,PA,Allegany,42.07225,-78.08937
31003061700000,Sawyer 90,Bradley Producing Corp.,PA,Allegany,42.07229,-78.09031
31003061710000,Sawyer 91,Bradley Producing Corp.,PA,Allegany,42.07229,-78.09144999999998
31003061720000,Sawyer 20,Bradley Producing Corp.,PA,Allegany,42.07234,-78.09267
31003061730000,Sawyer 93,Bradley Producing Corp.,PA,Allegany,42.07229,-78.09372
31003061740000,Davie 033,Bradley Producing Corp.,PA,Allegany,42.03667,-78.1765
31003061750000,Davie 032,Bradley Producing Corp.,PA,Allegany,42.03656,-78.17785999999998
31003061760000,Davie 2,Bradley Producing Corp.,PA,Allegany,42.03695,-78.17726999999998
31003061840000,Babcock 120,Bradley Producing Corp.,PA,Allegany,42.16198,-77.96939999999998
31003061850000,Babcock 119,Bradley Producing Corp.,PA,Allegany,42.16112,-77.96939999999998
31003061860000,Babcock 118,Bradley Producing Corp.,PA,Allegany,42.16038,-77.96939999999998
31003061870000,Babcock 117,Bradley Producing Corp.,PA,Allegany,42.15956,-77.96939999999998
31003061880000,Babcock 116,Bradley Producing Corp.,PA,Allegany,42.16195,-77.9684
31003061890000,Babcock 115,Bradley Producing Corp.,PA,Allegany,42.16112,-77.9684
31003061900000,Babcock 114,Bradley Producing Corp.,PA,Allegany,42.16038,-77.9684
31003061910000,Babcock 113,Bradley Producing Corp.,PA,Allegany,42.15961,-77.9684
31003061920000,Babcock 112,Bradley Producing Corp.,PA,Allegany,42.16192,-77.96743999999998
31003061930000,Babcock 111,Bradley Producing Corp.,PA,Allegany,42.16112,-77.96737
31003061940000,Babcock 110,Bradley Producing Corp.,PA,Allegany,42.16038,-77.96743999999998
31003061950000,Babcock 109,Bradley Producing Corp.,PA,Allegany,42.15958,-77.96743999999998
31003061960000,Babcock 108,Bradley Producing Corp.,PA,Allegany,42.16195,-77.96640999999998
31003061970000,Babcock 107,Bradley Producing Corp.,PA,Allegany,42.16115,-77.96640999999998
31003061980000,Babcock 106,Bradley Producing Corp.,PA,Allegany,42.16038,-77.96640999999998
31003061990000,Babcock 3105,Bradley Producing Corp.,PA,Allegany,42.15958,-77.96640999999998
31003062000000,Babcock 104,Bradley Producing Corp.,PA,Allegany,42.16195,-77.96534
31003062010000,Babcock 103,Bradley Producing Corp.,PA,Allegany,42.16115,-77.96534
31003062020000,Babcock 102,Bradley Producing Corp.,PA,Allegany,42.16038,-77.96534
31003062030000,Babcock 101,Bradley Producing Corp.,PA,Allegany,42.15958,-77.96534
31003062040000,Babcock 18,Bradley Producing Corp.,PA,Allegany,42.16233,-77.96895999999998
31003062050000,Babcock 17,Bradley Producing Corp.,PA,Allegany,42.16156,-77.96895999999998
31003062060000,Babcock 16,Bradley Producing Corp.,PA,Allegany,42.16074,-77.96895999999998
31003062070000,Babcock 15,Bradley Producing Corp.,PA,Allegany,42.16,-77.96895999999998
31003062080000,Babcock 14,Bradley Producing Corp.,PA,Allegany,42.15917,-77.96895
31003062090000,Babcock 13,Bradley Producing Corp.,PA,Allegany,42.16233,-77.96787999999998
31003062100000,Babcock 12,Bradley Producing Corp.,PA,Allegany,42.16154,-77.96787999999998
31003062110000,Babcock 11,Bradley Producing Corp.,PA,Allegany,42.16074,-77.96787999999998
31003062120000,Babcock 10,Bradley Producing Corp.,PA,Allegany,42.16,-77.96787999999998
31003062130000,Babcock 9,Bradley Producing Corp.,PA,Allegany,42.15917,-77.96787999999998
31003062140000,Babcock 8,Bradley Producing Corp.,PA,Allegany,42.16233,-77.96689
31003062150000,Babcock 7,Bradley Producing Corp.,PA,Allegany,42.16154,-77.96689
31003062160000,Babcock 6,Bradley Producing Corp.,PA,Allegany,42.16074,-77.96689
31003062170000,Babcock 5,Bradley Producing Corp.,PA,Allegany,42.15994,-77.96689
31003062180000,Babcock 4,Bradley Producing Corp.,PA,Allegany,42.16233,-77.96589
31003062190000,Babcock 3,Bradley Producing Corp.,PA,Allegany,42.16156,-77.96593
31003062200000,Babcock 2,Bradley Producing Corp.,PA,Allegany,42.16071,-77.96585
31003062210000,Babcock 1,Bradley Producing Corp.,PA,Allegany,42.15997,-77.96589
31003062220000,Babcock 05,Bradley Producing Corp.,PA,Allegany,42.16354,-77.96992
31003062230000,Babcock 04,Bradley Producing Corp.,PA,Allegany,42.16313,-77.96992
31003062240000,Babcock 03,Bradley Producing Corp.,PA,Allegany,42.16269,-77.96992
31003062250000,Babcock 02,Bradley Producing Corp.,PA,Allegany,42.16233,-77.96992
31003062260000,Babcock 01,Bradley Producing Corp.,PA,Allegany,42.16181,-77.96992
31003062270000,Wright 108,Bradley Producing Corp.,PA,Allegany,42.16192,-77.9633
31003062280000,Wright 107,Bradley Producing Corp.,PA,Allegany,42.16101,-77.9633
31003062290000,Wright 106,Bradley Producing Corp.,PA,Allegany,42.16035,-77.9633
31003062300000,Wright 105,Bradley Producing Corp.,PA,Allegany,42.15958,-77.9633
31003062310000,Wright 104,Bradley Producing Corp.,PA,Allegany,42.16192,-77.96438
31003062320000,Wright 103,Bradley Producing Corp.,PA,Allegany,42.16112,-77.96438
31003062330000,Wright 102,Bradley Producing Corp.,PA,Allegany,42.16038,-77.96438
31003062340000,Wright 101,Bradley Producing Corp.,PA,Allegany,42.15958,-77.96437
31003062350000,Wright 11,Bradley Producing Corp.,PA,Allegany,42.16151,-77.96286
31003062360000,Wright 10,Bradley Producing Corp.,PA,Allegany,42.16071,-77.96286
31003062370000,Wright 9,Bradley Producing Corp.,PA,Allegany,42.15997,-77.96286
31003062380000,Wright 8,Bradley Producing Corp.,PA,Allegany,42.16231,-77.96385999999998
31003062390000,Wright 7,Bradley Producing Corp.,PA,Allegany,42.16154,-77.96385999999998
31003062400000,Wright 6,Bradley Producing Corp.,PA,Allegany,42.16074,-77.96385999999998
31003062410000,Wright 5,Bradley Producing Corp.,PA,Allegany,42.15994,-77.96385999999998
31003062420000,Wright 4,Bradley Producing Corp.,PA,Allegany,42.16231,-77.96486
31003062430000,Wright 3,Bradley Producing Corp.,PA,Allegany,42.16154,-77.96486
31003062440000,Wright 2,Bradley Producing Corp.,PA,Allegany,42.16074,-77.96486
31003062450000,Wright 1,Bradley Producing Corp.,PA,Allegany,42.15997,-77.96486
31003062460000,Wright 12,Bradley Producing Corp.,PA,Allegany,42.16231,-77.96286
31003062470000,Stebbins 453,Bradley Producing Corp.,PA,Allegany,42.15439,-77.96255999999998
31003062480000,Stebbins 110,Bradley Producing Corp.,PA,Allegany,42.15656,-77.96340999999998
31003062490000,Stebbins 109,Bradley Producing Corp.,PA,Allegany,42.1573,-77.96338
31003062500000,Stebbins 108,Bradley Producing Corp.,PA,Allegany,42.15804,-77.96338
31003062510000,Stebbins 107,Bradley Producing Corp.,PA,Allegany,42.15884,-77.96338
31003062520000,Stebbins 106,Bradley Producing Corp.,PA,Allegany,42.1551,-77.96234
31003062530000,Stebbins 105,Bradley Producing Corp.,PA,Allegany,42.15573,-77.96234
31003062540000,Stebbins 104,Bradley Producing Corp.,PA,Allegany,42.1565,-77.96234
31003062550000,Stebbins 103,Bradley Producing Corp.,PA,Allegany,42.15727,-77.96234
31003062560000,Stebbins 102,Bradley Producing Corp.,PA,Allegany,42.15802,-77.96234
31003062570000,Stebbins 101,Bradley Producing Corp.,PA,Allegany,42.15879,-77.96234
31003062580000,Stebbins 46,Bradley Producing Corp.,PA,Allegany,42.15615,-77.96792
31003062590000,Stebbins 45,Bradley Producing Corp.,PA,Allegany,42.15692,-77.96792
31003062600000,Stebbins 44,Bradley Producing Corp.,PA,Allegany,42.15774,-77.96792
31003062610000,Stebbins 43,Bradley Producing Corp.,PA,Allegany,42.15848,-77.96792
31003062620000,Stebbins 41,Bradley Producing Corp.,PA,Allegany,42.15461,-77.9629
31003062630000,Stebbins 40,Bradley Producing Corp.,PA,Allegany,42.15463,-77.96385999999998
31003062640000,Stebbins 42,Bradley Producing Corp.,PA,Allegany,42.15461,-77.9619
31003062650000,Stebbins 39,Bradley Producing Corp.,PA,Allegany,42.15463,-77.96488999999998
31003062660000,Stebbins 38,Bradley Producing Corp.,PA,Allegany,42.15466,-77.96593
31003062670000,Stebbins 37,Bradley Producing Corp.,PA,Allegany,42.15466,-77.96692
31003062680000,Stebbins 36,Bradley Producing Corp.,PA,Allegany,42.15535,-77.96696
31003062690000,Stebbins 35,Bradley Producing Corp.,PA,Allegany,42.15617,-77.96692
31003062700000,Stebbins 34,Bradley Producing Corp.,PA,Allegany,42.15692,-77.96692
31003062710000,Stebbins 33,Bradley Producing Corp.,PA,Allegany,42.15771,-77.96692
31003062720000,Stebbins 32,Bradley Producing Corp.,PA,Allegany,42.15846,-77.96692
31003062730000,Stebbins 31,Bradley Producing Corp.,PA,Allegany,42.15917,-77.96692
31003062740000,Stebbins 30,Bradley Producing Corp.,PA,Allegany,42.15535,-77.96593
31003062750000,Stebbins 29,Bradley Producing Corp.,PA,Allegany,42.15615,-77.96593
31003062760000,Stebbins 28,Bradley Producing Corp.,PA,Allegany,42.15689,-77.96589
31003062770000,Stebbins 27,Bradley Producing Corp.,PA,Allegany,42.15771,-77.96589
31003062780000,Stebbins 1,Bradley Producing Corp.,PA,Allegany,42.15914,-77.96186
31003062790000,Stebbins 2,Bradley Producing Corp.,PA,Allegany,42.15843,-77.96186
31003062800000,Stebbins 12,Bradley Producing Corp.,PA,Allegany,42.15535,-77.96286
31003062810000,Stebbins 11,Bradley Producing Corp.,PA,Allegany,42.15612,-77.9629
31003062820000,Stebbins 10,Bradley Producing Corp.,PA,Allegany,42.15689,-77.96286
31003062830000,Stebbins 9,Bradley Producing Corp.,PA,Allegany,42.15766,-77.96286
31003062840000,Stebbins 8,Bradley Producing Corp.,PA,Allegany,42.15843,-77.96286
31003062850000,Stebbins 7,Bradley Producing Corp.,PA,Allegany,42.15917,-77.96286
31003062860000,Stebbins 6,Bradley Producing Corp.,PA,Allegany,42.15532,-77.96194
31003062870000,Stebbins 5,Bradley Producing Corp.,PA,Allegany,42.15612,-77.96194
31003062880000,Stebbins 26,Bradley Producing Corp.,PA,Allegany,42.15846,-77.96589
31003062890000,Stebbins 23,Bradley Producing Corp.,PA,Allegany,42.15615,-77.96488999999998
31003062900000,Stebbins 22,Bradley Producing Corp.,PA,Allegany,42.15692,-77.96488999999998
31003062910000,Stebbins 21,Bradley Producing Corp.,PA,Allegany,42.15769,-77.96488999999998
31003062920000,Stebbins 20,Bradley Producing Corp.,PA,Allegany,42.15843,-77.96488999999998
31003062930000,Stebbins 19,Bradley Producing Corp.,PA,Allegany,42.15917,-77.96488999999998
31003062940000,Stebbins 18,Bradley Producing Corp.,PA,Allegany,42.15532,-77.96385999999998
31003062950000,Stebbins 17,Bradley Producing Corp.,PA,Allegany,42.15612,-77.96385999999998
31003062960000,Stebbins 16,Bradley Producing Corp.,PA,Allegany,42.15689,-77.96385999999998
31003062970000,Stebbins 15,Bradley Producing Corp.,PA,Allegany,42.15769,-77.96385999999998
31003062980000,Stebbins 14,Bradley Producing Corp.,PA,Allegany,42.15843,-77.96382
31003062990000,Stebbins 13,Bradley Producing Corp.,PA,Allegany,42.15914,-77.96382
31003063000000,Stebbins 4,Bradley Producing Corp.,PA,Allegany,42.15683,-77.96194
31003063010000,Stebbins 3,Bradley Producing Corp.,PA,Allegany,42.15766,-77.96194
31003063020000,Stebbins 452,Bradley Producing Corp.,PA,Allegany,42.15403,-77.96407999999998
31003063030000,Stebbins 451,Bradley Producing Corp.,PA,Allegany,42.15835,-77.96969
31003063040000,Stebbins 450,Bradley Producing Corp.,PA,Allegany,42.15887,-77.96931999999998
31003063050000,Stebbins 446,Bradley Producing Corp.,PA,Allegany,42.1556,-77.96818
31003063060000,Stebbins 138,Bradley Producing Corp.,PA,Allegany,42.15656,-77.9684
31003063070000,Stebbins 137,Bradley Producing Corp.,PA,Allegany,42.1573,-77.9684
31003063080000,Stebbins 136,Bradley Producing Corp.,PA,Allegany,42.15807,-77.9684
31003063090000,Stebbins 133,Bradley Producing Corp.,PA,Allegany,42.15727,-77.96743999999998
31003063100000,Stebbins 132,Bradley Producing Corp.,PA,Allegany,42.15802,-77.96743999999998
31003063110000,Stebbins 131,Bradley Producing Corp.,PA,Allegany,42.15881,-77.9674
31003063120000,Stebbins 130,Bradley Producing Corp.,PA,Allegany,42.15496,-77.96652
31003063130000,Stebbins 129,Bradley Producing Corp.,PA,Allegany,42.15579,-77.96640999999998
31003063140000,Stebbins 128,Bradley Producing Corp.,PA,Allegany,42.15653,-77.96644
31003063150000,Stebbins 127,Bradley Producing Corp.,PA,Allegany,42.15727,-77.96644
31003063160000,Stebbins 126,Bradley Producing Corp.,PA,Allegany,42.15807,-77.96640999999998
31003063170000,Stebbins 125,Bradley Producing Corp.,PA,Allegany,42.15879,-77.96640999999998
31003063180000,Stebbins 124,Bradley Producing Corp.,PA,Allegany,42.15505,-77.96545
31003063190000,Stebbins 123,Bradley Producing Corp.,PA,Allegany,42.15576,-77.96541
31003063200000,Stebbins 122,Bradley Producing Corp.,PA,Allegany,42.1565,-77.96545
31003063210000,Stebbins 121,Bradley Producing Corp.,PA,Allegany,42.1573,-77.96541
31003063220000,Stebbins 120,Bradley Producing Corp.,PA,Allegany,42.15802,-77.96545
31003063230000,Stebbins 119,Bradley Producing Corp.,PA,Allegany,42.15879,-77.96541
31003063240000,Stebbins 118,Bradley Producing Corp.,PA,Allegany,42.15502,-77.96434
31003063250000,Stebbins 117,Bradley Producing Corp.,PA,Allegany,42.15576,-77.96449
31003063260000,Stebbins 116,Bradley Producing Corp.,PA,Allegany,42.15653,-77.96437
31003063270000,Stebbins 115,Bradley Producing Corp.,PA,Allegany,42.15725,-77.96441
31003063280000,Stebbins 114,Bradley Producing Corp.,PA,Allegany,42.15804,-77.96437
31003063290000,Stebbins 113,Bradley Producing Corp.,PA,Allegany,42.15881,-77.96437
31003063300000,Stebbins 112,Bradley Producing Corp.,PA,Allegany,42.15499,-77.96338
31003063310000,Stebbins 111,Bradley Producing Corp.,PA,Allegany,42.15612,-77.96338
31003063320000,Green 40,Plants and Goodwin Inc.,PA,Allegany,42.06758,-78.08484
31003063330000,Fuller 32,Bradley Producing Corp.,PA,Allegany,42.18959,-77.95765
31003063340000,Fuller N-5,Bradley Producing Corp.,PA,Allegany,42.189,-77.96487999999998
31003063350000,Fuller N-4,Bradley Producing Corp.,PA,Allegany,42.18824,-77.96501
31003063360000,Fuller N-3,Bradley Producing Corp.,PA,Allegany,42.1875,-77.96514999999998
31003063370000,Fuller L-4,Bradley Producing Corp.,PA,Allegany,42.18799,-77.96393
31003063380000,Fuller L-3,Bradley Producing Corp.,PA,Allegany,42.18738,-77.96401
31003063390000,Fuller L-2,Bradley Producing Corp.,PA,Allegany,42.18663,-77.96411999999998
31003063400000,Fuller J-5,Bradley Producing Corp.,PA,Allegany,42.18876,-77.96271
31003063410000,Fuller J-4,Bradley Producing Corp.,PA,Allegany,42.18794,-77.96279
31003063420000,Fuller G-5,Bradley Producing Corp.,PA,Allegany,42.1887,-77.96156999999998
31003063430000,Fuller G-4,Bradley Producing Corp.,PA,Allegany,42.18787,-77.96164
31003063440000,Fuller F-6,Bradley Producing Corp.,PA,Allegany,42.18992,-77.96087
31003063450000,Fuller E-4,Bradley Producing Corp.,PA,Allegany,42.18557,-77.96049999999998
31003063460000,Fuller D-6,Bradley Producing Corp.,PA,Allegany,42.18985,-77.95968
31003063470000,Fuller B-7,Bradley Producing Corp.,PA,Allegany,42.19061,-77.95832
31003063480000,Fuller B-6,Bradley Producing Corp.,PA,Allegany,42.18978,-77.95843
31003063490000,Fuller B-5,Bradley Producing Corp.,PA,Allegany,42.18896,-77.95856
31003063500000,Fuller 14,Bradley Producing Corp.,PA,Allegany,42.18876,-77.95854
31003063510000,Fuller 12,Bradley Producing Corp.,PA,Allegany,42.18995,-77.95832
31003063520000,Lot 52 10,Bradley Producing Corp.,PA,Allegany,42.02056,-78.04423
31003063530000,Lot90 Alma Hill 2,Bradley Producing Corp.,PA,Allegany,42.03445,-78.01827
31003063540000,Allen 267,Bradley Producing Corp.,PA,Allegany,42.07507,-78.06834
31003063550000,Allen 266,Bradley Producing Corp.,PA,Allegany,42.07504,-78.06712
31003063560000,Allen 265,Bradley Producing Corp.,PA,Allegany,42.07504,-78.06591
31003063570000,Allen 264,Bradley Producing Corp.,PA,Allegany,42.07501,-78.06472999999998
31003063580000,Allen 263,Bradley Producing Corp.,PA,Allegany,42.07501,-78.06368999999998
31003063590000,Allen 132,Bradley Producing Corp.,PA,Allegany,42.0798,-78.06296
31003063600000,Allen 131,Bradley Producing Corp.,PA,Allegany,42.07908,-78.06288
31003063610000,Allen P-117,Bradley Producing Corp.,PA,Allegany,42.07834,-78.06296
31003063620000,Allen 107-P,Bradley Producing Corp.,PA,Allegany,42.08128,-78.06767999999998
31003063630000,Allen 120-P,Bradley Producing Corp.,PA,Allegany,42.07892,-78.0622
31003063640000,Fuller 29,Bradley Producing Corp.,PA,Allegany,42.18923,-77.96470999999998
31003063650000,Allen 272,Bradley Producing Corp.,PA,Allegany,42.07552,-78.06653
31003063660000,Allen 271,Bradley Producing Corp.,PA,Allegany,42.07554,-78.06775
31003063670000,Allen 270,Bradley Producing Corp.,PA,Allegany,42.07556,-78.06896999999998
31003063680000,Allen 269,Bradley Producing Corp.,PA,Allegany,42.07556,-78.07015
31003063690000,Allen 268,Bradley Producing Corp.,PA,Allegany,42.07509,-78.06955999999998
31003063700000,Allen 23,Bradley Producing Corp.,PA,Allegany,42.08011,-78.06892999999998
31003063710000,Allen 292,Bradley Producing Corp.,PA,Allegany,42.07727,-78.06653
31003063720000,Allen 295,Bradley Producing Corp.,PA,Allegany,42.07697,-78.07035
31003063730000,Allen 294,Bradley Producing Corp.,PA,Allegany,42.07697,-78.06955999999998
31003063740000,Allen 290,Bradley Producing Corp.,PA,Allegany,42.07691,-78.06597999999998
31003063750000,Allen 289,Bradley Producing Corp.,PA,Allegany,42.07688,-78.06475
31003063760000,Allen 288,Bradley Producing Corp.,PA,Allegany,42.07688,-78.06366
31003063770000,Allen 284,Bradley Producing Corp.,PA,Allegany,42.07644,-78.06657
31003063780000,Allen 283,Bradley Producing Corp.,PA,Allegany,42.07647,-78.06775
31003063790000,Allen 281,Bradley Producing Corp.,PA,Allegany,42.07647,-78.07004
31003063800000,Allen 280,Bradley Producing Corp.,PA,Allegany,42.07602,-78.06955999999998
31003063810000,Allen 279,Bradley Producing Corp.,PA,Allegany,42.076,-78.06834
31003063820000,Allen 278,Bradley Producing Corp.,PA,Allegany,42.07599,-78.06716
31003063830000,Allen 277,Bradley Producing Corp.,PA,Allegany,42.07598,-78.06594
31003063840000,Allen 276,Bradley Producing Corp.,PA,Allegany,42.07596,-78.06472999999998
31003063850000,Green 269,Plants and Goodwin Inc.,PA,Allegany,42.06679,-78.08476
31003063860000,Green 270,Plants and Goodwin Inc.,PA,Allegany,42.06844,-78.08476
31003063870000,Green 271,Plants and Goodwin Inc.,PA,Allegany,42.06929,-78.08476
31003063900000,Alma Hill 8-90,K-Arcy Corp.,PA,Allegany,42.03362,-78.00378
31003064740000,Allen 145,Bradley Producing Corp.,PA,Allegany,42.08016,-78.06435999999998
31003064750000,Allen 144,Bradley Producing Corp.,PA,Allegany,42.08084,-78.06435999999998
31003064760000,Allen 143,Bradley Producing Corp.,PA,Allegany,42.08049,-78.06382
31003064770000,Allen 142,Bradley Producing Corp.,PA,Allegany,42.0798,-78.06382
31003064780000,Allen 141,Bradley Producing Corp.,PA,Allegany,42.07908,-78.06382
31003064790000,Allen 140,Bradley Producing Corp.,PA,Allegany,42.07842,-78.06382
31003064800000,Allen 139,Bradley Producing Corp.,PA,Allegany,42.07875,-78.06332999999998
31003064810000,Allen 138,Bradley Producing Corp.,PA,Allegany,42.07944,-78.06332999999998
31003064820000,Allen 137,Bradley Producing Corp.,PA,Allegany,42.08014,-78.06332999999998
31003064830000,Allen 275,Bradley Producing Corp.,PA,Allegany,42.07595,-78.06366
31003064840000,Allen 184,Bradley Producing Corp.,PA,Allegany,42.07947,-78.06845
31003064850000,Allen 146,Bradley Producing Corp.,PA,Allegany,42.07944,-78.06435999999998
31003064860000,Allen 136,Bradley Producing Corp.,PA,Allegany,42.08084,-78.06331
31003064870000,Allen 135,Bradley Producing Corp.,PA,Allegany,42.08142,-78.06336
31003064880000,Allen 133,Bradley Producing Corp.,PA,Allegany,42.08049,-78.06284999999998
31003064890000,Allen 125,Bradley Producing Corp.,PA,Allegany,42.08007,-78.06263
31003064900000,Allen 147,Bradley Producing Corp.,PA,Allegany,42.07842,-78.06488
31003064910000,Allen 155,Bradley Producing Corp.,PA,Allegany,42.07842,-78.06591
31003064920000,Allen 170,Bradley Producing Corp.,PA,Allegany,42.08084,-78.06742
31003064930000,Allen 183,Bradley Producing Corp.,PA,Allegany,42.08016,-78.06845
31003064940000,Allen 193,Bradley Producing Corp.,PA,Allegany,42.08016,-78.06949
31003064950000,Allen 10,Bradley Producing Corp.,PA,Allegany,42.07867,-78.06399
31003064960000,"Allen, I. 2",Bradley Producing Corp.,PA,Allegany,42.0756,-78.06749
31003064970000,"Allen, R. 2",Bradley Producing Corp.,PA,Allegany,42.07545,-78.07045999999998
31003064980000,"Allen, I. 3",Bradley Producing Corp.,PA,Allegany,42.07562,-78.06635
31003064990000,"Allen, R. 3",Bradley Producing Corp.,PA,Allegany,42.07625,-78.06977999999998
31003065000000,"Allen, I. 4",Bradley Producing Corp.,PA,Allegany,42.07562,-78.06453999999998
31003065010000,"Allen, R. 4",Bradley Producing Corp.,PA,Allegany,42.07749,-78.06999999999998
31003065020000,Allen 58p,Bradley Producing Corp.,PA,Allegany,42.07772,-78.06288
31003065030000,Allen 43p,Bradley Producing Corp.,PA,Allegany,42.07774,-78.06959999999998
31003065040000,Allen 33p,Bradley Producing Corp.,PA,Allegany,42.07774,-78.06435999999998
31003065050000,Allen 32,Bradley Producing Corp.,PA,Allegany,42.07801,-78.0655
31003065060000,Allen 29,Bradley Producing Corp.,PA,Allegany,42.07746,-78.06554
31003065070000,Allen 31,Bradley Producing Corp.,PA,Allegany,42.07801,-78.06472999999998
31003065080000,Allen 28p,Bradley Producing Corp.,PA,Allegany,42.07774,-78.06512999999998
31003065090000,Allen 11,Bradley Producing Corp.,PA,Allegany,42.07721,-78.0648
31003065100000,Allen 78,Bradley Producing Corp.,PA,Allegany,42.07745,-78.06399
31003065110000,Allen 75,Bradley Producing Corp.,PA,Allegany,42.07801,-78.06400999999998
31003065120000,Allen 67,Bradley Producing Corp.,PA,Allegany,42.07801,-78.06324999999998
31003065130000,Allen 63,Bradley Producing Corp.,PA,Allegany,42.07746,-78.06324999999998
31003065140000,Allen 61p,Bradley Producing Corp.,PA,Allegany,42.07512,-78.07268999999998
31003065150000,Allen 59p,Bradley Producing Corp.,PA,Allegany,42.07772,-78.06362
31003065160000,Allen 90,Bradley Producing Corp.,PA,Allegany,42.07545,-78.07143999999998
31003065170000,Allen 88p,Bradley Producing Corp.,PA,Allegany,42.07578,-78.07107
31003065180000,Allen 84p,Bradley Producing Corp.,PA,Allegany,42.07509,-78.07078
31003065190000,Allen 81p,Bradley Producing Corp.,PA,Allegany,42.07512,-78.07155
31003065200000,Allen 93,Bradley Producing Corp.,PA,Allegany,42.07545,-78.07205
31003065210000,Allen 91,Bradley Producing Corp.,PA,Allegany,42.0761,-78.0707
31003065220000,Allen 115,Bradley Producing Corp.,PA,Allegany,42.07603,-78.06331
31003065230000,Allen 114,Bradley Producing Corp.,PA,Allegany,42.07534,-78.06331
31003065240000,Allen 113p,Bradley Producing Corp.,PA,Allegany,42.07501,-78.06284999999998
31003065250000,Allen 94,Bradley Producing Corp.,PA,Allegany,42.07675,-78.0707
31003065260000,Allen 122,Bradley Producing Corp.,PA,Allegany,42.0793,-78.06239999999998
31003065270000,Allen 119,Bradley Producing Corp.,PA,Allegany,42.07867,-78.06261999999998
31003065280000,Allen 116,Bradley Producing Corp.,PA,Allegany,42.0767,-78.06328999999998
31003065290000,Allen 124,Bradley Producing Corp.,PA,Allegany,42.07972,-78.06259
31003065300000,Allen 18,Bradley Producing Corp.,PA,Allegany,42.08148,-78.06738
31003065310000,Allen 151,Bradley Producing Corp.,PA,Allegany,42.08163,-78.06690999999998
31003065320000,Allen 152,Bradley Producing Corp.,PA,Allegany,42.08016,-78.06536
31003065330000,Allen 153,Bradley Producing Corp.,PA,Allegany,42.07944,-78.06536
31003065340000,Allen 160,Bradley Producing Corp.,PA,Allegany,42.08142,-78.06642999999998
31003065350000,Allen 161,Bradley Producing Corp.,PA,Allegany,42.08084,-78.06639
31003065360000,Allen 162,Bradley Producing Corp.,PA,Allegany,42.08016,-78.06641
31003065370000,Allen 163,Bradley Producing Corp.,PA,Allegany,42.07944,-78.06639
31003065380000,Allen 171,Bradley Producing Corp.,PA,Allegany,42.08016,-78.06742
31003065390000,Allen 202,Bradley Producing Corp.,PA,Allegany,42.08214,-78.06767999999998
31003065400000,Fuller n-6,Bradley Producing Corp.,PA,Allegany,42.18982,-77.96482
31003065410000,Fuller M-5,Bradley Producing Corp.,PA,Allegany,42.18931,-77.96434
